id,ON STREET NAME,NUMBER OF MOTORIST KILLED,CONTRIBUTING FACTOR VEHICLE 3,NUMBER OF CYCLIST INJURED,LONGITUDE,OFF STREET NAME,VEHICLE TYPE CODE 4,LATITUDE,LOCATION,VEHICLE TYPE CODE 1,NUMBER OF MOTORIST INJURED,NUMBER OF PERSONS KILLED,CONTRIBUTING FACTOR VEHICLE 4,CONTRIBUTING FACTOR VEHICLE 2,NUMBER OF PEDESTRIANS KILLED,CROSS STREET NAME,NUMBER OF PERSONS INJURED,VEHICLE TYPE CODE 2,BOROUGH,CONTRIBUTING FACTOR VEHICLE 1,ZIP CODE,VEHICLE TYPE CODE 3,NUMBER OF CYCLIST KILLED,DATE,UNIQUE KEY,CONTRIBUTING FACTOR VEHICLE 5,VEHICLE TYPE CODE 5,TIME,NUMBER OF PEDESTRIANS INJURED
18,WORTMAN AVENUE,0,,0,-73.8720068,,,40.66251389999999,"(40.6625139, -73.8720068)",TAXI,0,0,,Unspecified,0,MONTAUK AVENUE,0,PASSENGER VEHICLE,BROOKLYN,Failure to Yield Right-of-Way,11208.0,,0,11/10/2016,3559576,,,16:11:00,0
21,HUBERT STREET,0,,0,-74.0083444,,,40.721322799999996,"(40.7213228, -74.0083444)",PASSENGER VEHICLE,0,0,,,0,HUDSON STREET,1,,MANHATTAN,Failure to Yield Right-of-Way,10013.0,,0,11/10/2016,3557391,,,05:11:00,1
69,HENRY STREET,0,,0,-73.9975625,,,40.6879989,"(40.6879989, -73.9975625)",PASSENGER VEHICLE,0,0,,Lost Consciousness,0,WARREN STREET,0,VAN,BROOKLYN,Lost Consciousness,11201.0,,0,04/16/2016,3419378,,,09:15:00,0
80,,0,Failure to Yield Right-of-Way,0,-73.8545422,67-64 FLEET STREET,,40.7192276,"(40.7192276, -73.8545422)",PASSENGER VEHICLE,0,0,,Failure to Yield Right-of-Way,0,,0,PASSENGER VEHICLE,QUEENS,Failure to Yield Right-of-Way,11375.0,PASSENGER VEHICLE,0,04/15/2016,3428072,,,10:20:00,0
85,BEDFORD AVENUE,0,,0,-73.9527315,,,40.6321467,"(40.6321467, -73.9527315)",PASSENGER VEHICLE,0,0,,Failure to Yield Right-of-Way,0,CAMPUS ROAD,0,PASSENGER VEHICLE,BROOKLYN,Failure to Yield Right-of-Way,11210.0,,0,04/15/2016,3417537,,,10:35:00,0
89,COLUMBUS AVENUE,0,,0,-73.9773678,,,40.7793641,"(40.7793641, -73.9773678)",PASSENGER VEHICLE,0,0,,Failure to Yield Right-of-Way,0,WEST 75 STREET,0,PASSENGER VEHICLE,MANHATTAN,Failure to Yield Right-of-Way,10023.0,,0,04/15/2016,3409274,,,10:50:00,0
119,,0,,0,-73.8969612,6253      BROADWAY,,40.8975679,"(40.8975679, -73.8969612)",PASSENGER VEHICLE,0,0,,Unsafe Speed,0,,0,PASSENGER VEHICLE,BRONX,Failure to Yield Right-of-Way,10471.0,,0,11/10/2016,3557801,,,20:11:00,0
127,ROCKAWAY BOULEVARD,0,,0,-73.7738282,,,40.659650899999995,"(40.6596509, -73.7738282)",PASSENGER VEHICLE,0,0,,Failure to Yield Right-of-Way,0,FARMERS BOULEVARD,0,PASSENGER VEHICLE,QUEENS,Failure to Yield Right-of-Way,11434.0,,0,04/15/2016,3424164,,,11:30:00,0
147,GRAND AVENUE,0,,0,-73.9625453,,,40.677285499999996,"(40.6772855, -73.9625453)",MOTORCYCLE,1,0,,Lost Consciousness,0,SAINT MARKS AVENUE,1,,BROOKLYN,Lost Consciousness,11238.0,,0,04/15/2016,3419618,,,12:00:00,0
173,114 ROAD,0,,0,-73.732433,,,40.7009644,"(40.7009644, -73.732433)",PASSENGER VEHICLE,1,0,,Failure to Yield Right-of-Way,0,225 STREET,1,PASSENGER VEHICLE,QUEENS,Failure to Yield Right-of-Way,11411.0,,0,04/15/2016,3424166,,,12:50:00,0
180,RICHMOND AVENUE,0,,0,-74.15397349999998,,,40.5342669,"(40.5342669, -74.1539735)",PASSENGER VEHICLE,1,0,,Unspecified,0,HYLAN BOULEVARD,1,PASSENGER VEHICLE,STATEN ISLAND,Failure to Yield Right-of-Way,10312.0,,0,11/10/2016,3559009,,,20:11:00,0
188,CALYER STREET,0,,0,-73.9558065,,,40.727295500000004,"(40.7272955, -73.9558065)",PASSENGER VEHICLE,0,0,,Failure to Yield Right-of-Way,0,CLIFFORD PLACE,0,PASSENGER VEHICLE,BROOKLYN,Failure to Yield Right-of-Way,11222.0,,0,04/15/2016,3421848,,,13:15:00,0
205,130 STREET,0,,0,-73.83886109999997,,,40.7786169,"(40.7786169, -73.8388611)",PASSENGER VEHICLE,0,0,,Failure to Yield Right-of-Way,0,23 AVENUE,0,PASSENGER VEHICLE,QUEENS,Failure to Yield Right-of-Way,11356.0,,0,04/15/2016,3426617,,,13:50:00,0
221,WALLABOUT STREET,0,,0,-73.9571664,,,40.6997084,"(40.6997084, -73.9571664)",PASSENGER VEHICLE,0,0,,Lost Consciousness,0,BEDFORD AVENUE,0,,BROOKLYN,Lost Consciousness,11206.0,,0,04/15/2016,3421539,,,14:55:00,0
238,,0,,0,-73.9088261,50-06 31 AVENUE,,40.7574437,"(40.7574437, -73.9088261)",PASSENGER VEHICLE,0,0,,,0,,1,,QUEENS,Failure to Yield Right-of-Way,11377.0,,0,04/15/2016,3429070,,,15:00:00,1
255,JEROME AVENUE,0,,0,-73.8780005,,,40.88744620000001,"(40.8874462, -73.8780005)",PASSENGER VEHICLE,0,0,,Failure to Yield Right-of-Way,0,BAINBRIDGE AVENUE,0,PASSENGER VEHICLE,BRONX,Failure to Yield Right-of-Way,10467.0,,0,04/15/2016,3414390,,,15:40:00,0
266,WESTCHESTER AVENUE,0,,0,-73.8860957,,,40.82765560000001,"(40.8276556, -73.8860957)",PASSENGER VEHICLE,0,0,,Failure to Yield Right-of-Way,0,WHITLOCK AVENUE,0,PASSENGER VEHICLE,BRONX,Failure to Yield Right-of-Way,10472.0,,0,04/15/2016,3411451,,,16:00:00,0
274,111 STREET,0,,0,-73.82897109999998,,,40.6803265,"(40.6803265, -73.8289711)",PICK-UP TRUCK,0,0,,,0,109 AVENUE,1,,QUEENS,Failure to Yield Right-of-Way,11420.0,,0,11/10/2016,3557557,,,06:11:00,1
290,CANAL STREET,0,,0,-74.006299,,,40.722549900000004,"(40.7225499, -74.006299)",PASSENGER VEHICLE,3,0,,Failure to Yield Right-of-Way,0,VARICK STREET,3,,MANHATTAN,Failure to Yield Right-of-Way,10013.0,,0,04/15/2016,3405498,,,16:03:00,0
314,EAST FORDHAM ROAD,0,,0,-73.88079259999998,,,40.857128499999995,"(40.8571285, -73.8807926)",PASSENGER VEHICLE,0,0,,Failure to Yield Right-of-Way,0,SOUTHERN BOULEVARD,0,PASSENGER VEHICLE,BRONX,Failure to Yield Right-of-Way,10458.0,,0,04/15/2016,3413760,,,17:00:00,0
316,86 STREET,0,,0,-74.0026435,,,40.6072584,"(40.6072584, -74.0026435)",PASSENGER VEHICLE,0,0,,Failure to Yield Right-of-Way,0,18 AVENUE,0,SMALL COM VEH(4 TIRES),BROOKLYN,Failure to Yield Right-of-Way,11214.0,,0,04/15/2016,3415384,,,17:00:00,0
319,GRAND AVENUE,0,,0,-73.8953397,,,40.72591970000001,"(40.7259197, -73.8953397)",PASSENGER VEHICLE,0,0,,Failure to Yield Right-of-Way,0,69 STREET,0,PASSENGER VEHICLE,QUEENS,Failure to Yield Right-of-Way,11378.0,,0,04/15/2016,3423465,,,17:00:00,0
349,METCALF AVENUE,0,,0,-73.8720302,,,40.82691629999999,"(40.8269163, -73.8720302)",,0,0,,,0,WATSON AVENUE,1,,BRONX,Failure to Yield Right-of-Way,10472.0,,0,11/10/2016,3560252,,,09:11:00,1
350,18 AVENUE,0,,0,-74.0026435,,,40.6072584,"(40.6072584, -74.0026435)",SPORT UTILITY / STATION WAGON,0,0,,,0,86 STREET,1,,BROOKLYN,Failure to Yield Right-of-Way,11214.0,,0,11/10/2016,3557449,,,09:11:00,1
351,AVENUE W,0,,0,-73.95270040000003,,,40.5946391,"(40.5946391, -73.9527004)",PASSENGER VEHICLE,1,0,,Unspecified,0,EAST 18 STREET,1,SPORT UTILITY / STATION WAGON,BROOKLYN,Failure to Yield Right-of-Way,11229.0,,0,11/10/2016,3560525,,,09:11:00,0
372,5 AVENUE,0,,0,-73.976743,,,40.7591654,"(40.7591654, -73.976743)",OTHER,0,0,,Failure to Yield Right-of-Way,0,WEST 51 STREET,0,PASSENGER VEHICLE,MANHATTAN,Failure to Yield Right-of-Way,10022.0,,0,04/15/2016,3408389,,,18:10:00,0
376,72 STREET,0,,0,-73.99422259999999,,,40.6151303,"(40.6151303, -73.9942226)",PASSENGER VEHICLE,0,0,,Failure to Yield Right-of-Way,0,18 AVENUE,0,PASSENGER VEHICLE,BROOKLYN,Failure to Yield Right-of-Way,11204.0,,0,04/15/2016,3415397,,,18:25:00,0
392,,0,,0,-73.8858308,961 EAST 174 STREET,,40.836734899999996,"(40.8367349, -73.8858308)",PASSENGER VEHICLE,0,0,,Failure to Yield Right-of-Way,0,,0,PASSENGER VEHICLE,BRONX,Failure to Yield Right-of-Way,10460.0,,0,04/07/2016,3411692,,,15:27:00,0
407,EMPIRE BOULEVARD,0,,0,-73.96244870000002,,,40.6631828,"(40.6631828, -73.9624487)",PASSENGER VEHICLE,0,0,,,0,FLATBUSH AVENUE,1,,BROOKLYN,Failure to Yield Right-of-Way,11225.0,,0,04/15/2016,3417834,,,20:15:00,1
410,130 AVENUE,0,Failure to Yield Right-of-Way,0,-73.7399958,,,40.682506599999996,"(40.6825066, -73.7399958)",PASSENGER VEHICLE,0,0,,Failure to Yield Right-of-Way,0,227 STREET,0,PASSENGER VEHICLE,QUEENS,Failure to Yield Right-of-Way,11413.0,,0,03/13/2016,3423593,,,19:24:00,0
411,149 STREET,0,,0,-73.8163873,,,40.7631605,"(40.7631605, -73.8163873)",SPORT UTILITY / STATION WAGON,0,0,,,0,ROOSEVELT AVENUE,1,,QUEENS,Failure to Yield Right-of-Way,11354.0,,0,03/13/2016,3404912,,,19:35:00,1
419,UTOPIA PARKWAY,0,,0,-73.7924146,,,40.7467748,"(40.7467748, -73.7924146)",PASSENGER VEHICLE,1,0,,Failure to Yield Right-of-Way,0,UNDERHILL AVENUE,1,PASSENGER VEHICLE,QUEENS,Failure to Yield Right-of-Way,11365.0,,0,04/15/2016,3427624,,,21:00:00,0
420,48 AVENUE,0,,0,-73.76716390000001,,,40.755658000000004,"(40.755658, -73.7671639)",PASSENGER VEHICLE,1,0,,Failure to Yield Right-of-Way,0,BELL BOULEVARD,1,PASSENGER VEHICLE,QUEENS,Failure to Yield Right-of-Way,11364.0,,0,04/15/2016,3427623,,,21:07:00,0
424,FLATBUSH AVENUE,0,,0,-73.9780417,,,40.6848568,"(40.6848568, -73.9780417)",PASSENGER VEHICLE,0,0,,Lost Consciousness,0,4 AVENUE,0,PASSENGER VEHICLE,BROOKLYN,Lost Consciousness,11217.0,,0,04/15/2016,3420927,,,21:47:00,0
432,65 PLACE,0,,0,-73.9000093,,,40.7348498,"(40.7348498, -73.9000093)",PASSENGER VEHICLE,0,0,,Failure to Yield Right-of-Way,0,MAURICE AVENUE,0,PASSENGER VEHICLE,QUEENS,Failure to Yield Right-of-Way,11377.0,,0,04/15/2016,3423469,,,22:12:00,0
442,,0,,0,-74.00090379999997,8973      BAY PARKWAY,,40.5951044,"(40.5951044, -74.0009038)",PASSENGER VEHICLE,0,0,,Unspecified,0,,0,PASSENGER VEHICLE,BROOKLYN,Failure to Yield Right-of-Way,11214.0,,0,11/09/2016,3557102,,,11:11:00,0
465,FLATBUSH AVENUE,0,,0,-73.96142950000002,,,40.6616893,"(40.6616893, -73.9614295)",PASSENGER VEHICLE,0,0,,Failure to Yield Right-of-Way,0,LEFFERTS AVENUE,0,PASSENGER VEHICLE,BROOKLYN,Failure to Yield Right-of-Way,11225.0,,0,04/15/2016,3417830,,,02:50:00,0
467,EAST 233 STREET,0,,0,-73.85566329999997,,,40.89285220000001,"(40.8928522, -73.8556633)",OTHER,0,0,,Failure to Yield Right-of-Way,0,BYRON AVENUE,0,,BRONX,Failure to Yield Right-of-Way,10466.0,,0,04/15/2016,3413402,,,03:52:00,0
488,CORONA AVENUE,0,,0,-73.86747290000002,,,40.742096000000004,"(40.742096, -73.8674729)",PASSENGER VEHICLE,0,0,,,0,JUNCTION BOULEVARD,1,,QUEENS,Failure to Yield Right-of-Way,11368.0,,0,04/15/2016,3427145,,,05:50:00,1
502,,0,,0,-73.83405390000001,40-24     COLLEGE POINT BOULEVARD,,40.757450799999994,"(40.7574508, -73.8340539)",PASSENGER VEHICLE,0,0,,Unspecified,0,,0,,QUEENS,Failure to Yield Right-of-Way,11354.0,,0,11/09/2016,3556821,,,15:11:00,0
509,JEROME AVENUE,0,,0,-73.9141598,,,40.84517750000001,"(40.8451775, -73.9141598)",PASSENGER VEHICLE,1,0,,Failure to Yield Right-of-Way,0,CROSS BRONX EXPRESSWAY,1,,BRONX,Failure to Yield Right-of-Way,10452.0,,0,04/15/2016,3412374,,,07:00:00,0
533,TIBBETT AVENUE,0,,0,-73.9096784,,,40.8795157,"(40.8795157, -73.9096784)",PASSENGER VEHICLE,1,0,,Failure to Yield Right-of-Way,0,WEST 230 STREET,1,PASSENGER VEHICLE,BRONX,Failure to Yield Right-of-Way,10463.0,,0,04/15/2016,3414086,,,07:45:00,0
535,7 AVENUE,0,,0,-73.9951533,,,40.7447605,"(40.7447605, -73.9951533)",PASSENGER VEHICLE,0,0,,Lost Consciousness,0,WEST 24 STREET,0,PASSENGER VEHICLE,MANHATTAN,Lost Consciousness,10001.0,,0,04/15/2016,3406728,,,07:58:00,0
536,AVENUE S,0,,0,-73.94847270000002,,,40.6044444,"(40.6044444, -73.9484727)",PASSENGER VEHICLE,0,0,,Failure to Yield Right-of-Way,0,EAST 24 STREET,0,PASSENGER VEHICLE,BROOKLYN,Failure to Yield Right-of-Way,11229.0,,0,04/15/2016,3415018,,,08:00:00,0
544,EAST 57 STREET,0,,0,-73.9629257,,,40.7583082,"(40.7583082, -73.9629257)",PASSENGER VEHICLE,0,0,,,0,1 AVENUE,0,,MANHATTAN,Failure to Yield Right-of-Way,10022.0,,0,04/15/2016,3407855,,,08:30:00,0
555,,0,,0,-73.97988570000003,30 EAST 40 STREET,,40.7513709,"(40.7513709, -73.9798857)",,0,0,,Failure to Yield Right-of-Way,0,,0,,MANHATTAN,Failure to Yield Right-of-Way,10016.0,,0,04/15/2016,3407848,,,08:45:00,0
574,,0,,0,-73.8666495,,,40.733379600000006,"(40.7333796, -73.8666495)",SPORT UTILITY / STATION WAGON,0,0,,Unspecified,0,,0,PASSENGER VEHICLE,,Failure to Yield Right-of-Way,,,0,11/09/2016,3557368,,,16:11:00,0
579,164 STREET,0,,0,-73.805166,,,40.7304548,"(40.7304548, -73.805166)",PASSENGER VEHICLE,0,0,,,0,71 AVENUE,1,,QUEENS,Failure to Yield Right-of-Way,11365.0,,0,04/15/2016,3425289,,,09:00:00,1
614,59 STREET,0,,0,-73.9088266,,,40.72538770000001,"(40.7253877, -73.9088266)",PASSENGER VEHICLE,0,0,,Lost Consciousness,0,56 AVENUE,0,PASSENGER VEHICLE,QUEENS,Lost Consciousness,11378.0,,0,04/14/2016,3423455,,,10:41:00,0
631,WEST 165 STREET,0,Unspecified,0,-73.9430642,,,40.8401945,"(40.8401945, -73.9430642)",PASSENGER VEHICLE,0,0,,Unspecified,0,FORT WASHINGTON AVENUE,0,PASSENGER VEHICLE,MANHATTAN,Failure to Yield Right-of-Way,10032.0,SPORT UTILITY / STATION WAGON,0,11/09/2016,3558129,,,17:11:00,0
653,ROOSEVELT AVENUE,0,,0,-73.8265417,,,40.7604644,"(40.7604644, -73.8265417)",PASSENGER VEHICLE,0,0,,Failure to Yield Right-of-Way,0,UNION STREET,0,PASSENGER VEHICLE,QUEENS,Failure to Yield Right-of-Way,11354.0,,0,04/14/2016,3426590,,,11:45:00,0
659,,0,,0,-73.9558646,1035 DEAN STREET,,40.6776646,"(40.6776646, -73.9558646)",PASSENGER VEHICLE,0,0,,Failure to Yield Right-of-Way,0,,0,PASSENGER VEHICLE,BROOKLYN,Failure to Yield Right-of-Way,11238.0,,0,04/14/2016,3419609,,,12:00:00,0
687,PENNSYLVANIA AVENUE,0,,0,-73.8936503,,,40.6632221,"(40.6632221, -73.8936503)",SPORT UTILITY / STATION WAGON,0,0,,Unspecified,0,RIVERDALE AVENUE,0,PASSENGER VEHICLE,BROOKLYN,Failure to Yield Right-of-Way,11207.0,,0,11/09/2016,3556871,,,18:11:00,0
703,46 AVENUE,0,,0,-73.79732659999998,,,40.75387050000001,"(40.7538705, -73.7973266)",SPORT UTILITY / STATION WAGON,0,0,,Unspecified,0,170 STREET,0,SPORT UTILITY / STATION WAGON,QUEENS,Failure to Yield Right-of-Way,11358.0,,0,11/09/2016,3557209,,,18:11:00,0
722,WEST 15 STREET,0,,0,-74.00486090000003,,,40.74164520000001,"(40.7416452, -74.0048609)",PASSENGER VEHICLE,0,0,,Lost Consciousness,0,9 AVENUE,0,,MANHATTAN,Lost Consciousness,10011.0,,0,04/14/2016,3406710,,,14:00:00,0
731,EDGEWATER STREET,0,,0,-74.0709552,,,40.6204307,"(40.6204307, -74.0709552)",PASSENGER VEHICLE,0,0,,Lost Consciousness,0,BAY STREET,0,PASSENGER VEHICLE,STATEN ISLAND,Lost Consciousness,10305.0,,0,04/14/2016,3429852,,,14:05:00,0
754,AUSTIN STREET,0,,0,-73.83672609999998,,,40.7157398,"(40.7157398, -73.8367261)",PASSENGER VEHICLE,0,0,,,0,76 ROAD,1,,QUEENS,Failure to Yield Right-of-Way,11375.0,,0,04/14/2016,3428063,,,14:30:00,1
755,FARMERS BOULEVARD,0,,0,-73.7738282,,,40.659650899999995,"(40.6596509, -73.7738282)",PASSENGER VEHICLE,1,0,,Failure to Yield Right-of-Way,0,ROCKAWAY BOULEVARD,1,PASSENGER VEHICLE,QUEENS,Failure to Yield Right-of-Way,11434.0,,0,04/14/2016,3424145,,,14:30:00,0
759,,0,,0,-73.99035,6516 18 AVENUE,,40.6189755,"(40.6189755, -73.99035)",PASSENGER VEHICLE,0,0,,Lost Consciousness,0,,0,PASSENGER VEHICLE,BROOKLYN,Lost Consciousness,11204.0,,0,04/14/2016,3415375,,,15:00:00,0
762,FLUSHING AVENUE,0,,1,-73.93836429999998,,,40.701544299999995,"(40.7015443, -73.9383643)",BICYCLE,0,0,,Driver Inattention/Distraction,0,GARDEN STREET,1,BICYCLE,BROOKLYN,Failure to Yield Right-of-Way,11206.0,,0,11/09/2016,3557532,,,18:11:00,0
763,RALPH AVENUE,0,,0,-73.9182425,,,40.6287705,"(40.6287705, -73.9182425)",SPORT UTILITY / STATION WAGON,0,0,,,0,AVENUE J,1,,BROOKLYN,Failure to Yield Right-of-Way,11234.0,,0,11/09/2016,3557571,,,18:11:00,1
767,QUEENS BOULEVARD,0,,0,-73.8187046,,,40.708872899999996,"(40.7088729, -73.8187046)",SPORT UTILITY / STATION WAGON,1,0,,Unspecified,0,84 DRIVE,1,PASSENGER VEHICLE,QUEENS,Failure to Yield Right-of-Way,11435.0,,0,11/09/2016,3557888,,,18:11:00,0
770,,0,,0,-73.9861635,10 EAST 29 STREET,,40.745003999999994,"(40.745004, -73.9861635)",PASSENGER VEHICLE,0,0,,Lost Consciousness,0,,0,PASSENGER VEHICLE,MANHATTAN,Lost Consciousness,10016.0,,0,04/14/2016,3407048,,,15:00:00,0
773,METCALF AVENUE,0,,0,-73.8707949,,,40.8246654,"(40.8246654, -73.8707949)",PASSENGER VEHICLE,0,0,,Lost Consciousness,0,,0,VAN,,Lost Consciousness,,,0,04/14/2016,3412031,,,15:10:00,0
795,BAY 16 STREET,0,,0,-74.0034863,,,40.608746000000004,"(40.608746, -74.0034863)",PASSENGER VEHICLE,0,0,,Failure to Yield Right-of-Way,0,85 STREET,0,PASSENGER VEHICLE,BROOKLYN,Failure to Yield Right-of-Way,11214.0,,0,04/14/2016,3415377,,,15:50:00,0
797,WYTHE AVE,0,,1,-73.9616204,,,40.718415500000006,"(40.7184155, -73.9616204)",PASSENGER VEHICLE,0,0,,Failure to Yield Right-of-Way,0,NORTH 5 STREET,1,BICYCLE,BROOKLYN,Failure to Yield Right-of-Way,11249.0,,0,04/14/2016,3421839,,,15:50:00,0
809,ATLANTIC AVENUE,0,,0,-73.92753859999998,,,40.6772496,"(40.6772496, -73.9275386)",PASSENGER VEHICLE,0,0,,,0,ROCHESTER AVENUE,1,,BROOKLYN,Failure to Yield Right-of-Way,11233.0,,0,11/07/2016,3557339,,,09:11:00,1
816,VAN SINDEREN AVENUE,0,,0,-73.9008524,,,40.6653448,"(40.6653448, -73.9008524)",PASSENGER VEHICLE,0,0,,Failure to Yield Right-of-Way,0,DUMONT AVENUE,0,PASSENGER VEHICLE,BROOKLYN,Failure to Yield Right-of-Way,11207.0,,0,04/14/2016,3435000,,,16:20:00,0
819,DIVISION STREET,0,,0,-73.99750379999998,,,40.71406870000001,"(40.7140687, -73.9975038)",PASSENGER VEHICLE,0,0,,Lost Consciousness,0,BOWERY,0,PASSENGER VEHICLE,MANHATTAN,Lost Consciousness,10002.0,,0,04/14/2016,3405804,,,16:25:00,0
833,WOODHAVEN BOULEVARD,0,,0,-73.8488335,,,40.6881494,"(40.6881494, -73.8488335)",PASSENGER VEHICLE,2,0,,Failure to Yield Right-of-Way,0,ATLANTIC AVENUE,2,PASSENGER VEHICLE,QUEENS,Failure to Yield Right-of-Way,11416.0,,0,04/14/2016,3422480,,,17:02:00,0
873,OCCIDENT AVENUE,0,,0,-74.0838801,,,40.6292849,"(40.6292849, -74.0838801)",PASSENGER VEHICLE,0,0,,Failure to Yield Right-of-Way,0,MARION AVENUE,0,PASSENGER VEHICLE,STATEN ISLAND,Failure to Yield Right-of-Way,10304.0,,0,04/14/2016,3429813,,,17:34:00,0
877,,0,,0,-73.91831309999998,403 WEST 205 STREET,,40.8625298,"(40.8625298, -73.9183131)",PASSENGER VEHICLE,0,0,,Lost Consciousness,0,,0,PASSENGER VEHICLE,MANHATTAN,Lost Consciousness,10034.0,,0,04/14/2016,3410832,,,17:40:00,0
891,,0,,0,-73.96332029999998,268 WYTHE AVENUE,,40.7168461,"(40.7168461, -73.9633203)",PASSENGER VEHICLE,0,0,,Failure to Yield Right-of-Way,0,,0,PASSENGER VEHICLE,BROOKLYN,Failure to Yield Right-of-Way,11249.0,,0,04/14/2016,3421842,,,18:04:00,0
926,RICHMOND AVE,0,,0,-74.1610238,,,40.53989779999999,"(40.5398978, -74.1610238)",PASSENGER VEHICLE,0,0,,Failure to Yield Right-of-Way,0,SYCAMORE STREET,0,PASSENGER VEHICLE,STATEN ISLAND,Failure to Yield Right-of-Way,10312.0,,0,04/14/2016,3430705,,,19:10:00,0
927,QUEENS BOULEVARD,0,,0,-73.8367417,,,40.718212799999996,"(40.7182128, -73.8367417)",PASSENGER VEHICLE,0,0,,Lost Consciousness,0,75 ROAD,0,PASSENGER VEHICLE,QUEENS,Lost Consciousness,11375.0,,0,04/14/2016,3428067,,,19:15:00,0
933,COSTER STREET,0,,0,-73.8868051,,,40.8120773,"(40.8120773, -73.8868051)",TAXI,0,0,,,0,RANDALL AVENUE,1,,BRONX,Failure to Yield Right-of-Way,10474.0,,0,11/09/2016,3558822,,,06:11:00,1
934,FLATLANDS AVENUE,0,,0,-73.92948299999998,,,40.625031299999996,"(40.6250313, -73.929483)",PASSENGER VEHICLE,1,0,,Unspecified,0,EAST 48 STREET,1,SPORT UTILITY / STATION WAGON,BROOKLYN,Failure to Yield Right-of-Way,11234.0,,0,11/09/2016,3557565,,,06:11:00,0
944,9 AVENUE,0,,0,-74.0039696,,,40.742863899999996,"(40.7428639, -74.0039696)",PASSENGER VEHICLE,0,0,,Lost Consciousness,0,WEST 17 STREET,0,,MANHATTAN,Lost Consciousness,10011.0,,0,04/14/2016,3406715,,,19:20:00,0
987,,0,,0,-73.9027329,,,40.738494700000004,"(40.7384947, -73.9027329)",PASSENGER VEHICLE,0,0,,Lost Consciousness,0,,0,OTHER,,Lost Consciousness,,,0,04/14/2016,3425899,,,21:40:00,0
988,WEST BROADWAY,0,,0,-74.00795790000002,,,40.7171234,"(40.7171234, -74.0079579)",PASSENGER VEHICLE,0,0,,,0,THOMAS STREET,1,,MANHATTAN,Failure to Yield Right-of-Way,10013.0,,0,04/14/2016,3405480,,,21:40:00,1
1004,PENNSYLVANIA AVENUE,0,,0,-73.89685329999998,,,40.675735700000004,"(40.6757357, -73.8968533)",PASSENGER VEHICLE,0,0,,Unspecified,0,ATLANTIC AVENUE,0,SPORT UTILITY / STATION WAGON,BROOKLYN,Failure to Yield Right-of-Way,11207.0,,0,11/05/2016,3554735,,,12:11:00,0
1046,FLATBUSH AVENUE,0,,0,-73.96244870000002,,,40.6631828,"(40.6631828, -73.9624487)",PASSENGER VEHICLE,0,0,,Lost Consciousness,0,EMPIRE BOULEVARD,0,OTHER,BROOKLYN,Lost Consciousness,11225.0,,0,04/14/2016,3419883,,,06:35:00,0
1048,WOODHAVEN BOULEVARD,0,,0,-73.84691670000002,,,40.6859236,"(40.6859236, -73.8469167)",PASSENGER VEHICLE,0,0,,Lost Consciousness,0,97 AVENUE,0,,QUEENS,Lost Consciousness,11416.0,,0,04/14/2016,3422473,,,06:50:00,0
1050,,0,,0,-73.8044593,157-36 18 AVENUE,,40.7819506,"(40.7819506, -73.8044593)",PASSENGER VEHICLE,0,0,,Failure to Yield Right-of-Way,0,,0,PASSENGER VEHICLE,QUEENS,Failure to Yield Right-of-Way,11357.0,,0,04/14/2016,3426584,,,07:00:00,0
1064,35 AVENUE,0,,0,-73.92850109999998,,,40.7581273,"(40.7581273, -73.9285011)",PASSENGER VEHICLE,1,0,,Lost Consciousness,0,31 STREET,1,,QUEENS,Lost Consciousness,11106.0,,0,04/14/2016,3429049,,,07:05:00,0
1069,WOOLLEY AVENUE,0,Lost Consciousness,0,-74.13891640000001,,,40.607688399999994,"(40.6076884, -74.1389164)",MOTORCYCLE,1,0,,Lost Consciousness,0,,2,PASSENGER VEHICLE,,Lost Consciousness,,PASSENGER VEHICLE,0,04/14/2016,3430223,,,07:26:00,0
1086,47 AVENUE,0,,0,-73.7676685,,,40.756907899999995,"(40.7569079, -73.7676685)",PASSENGER VEHICLE,0,0,,Failure to Yield Right-of-Way,0,BELL BOULEVARD,0,PASSENGER VEHICLE,QUEENS,Failure to Yield Right-of-Way,11361.0,,0,04/14/2016,3427597,,,08:00:00,0
1089,EAST 163 STREET,0,,0,-73.9131663,,,40.825456,"(40.825456, -73.9131663)",PASSENGER VEHICLE,0,0,,,0,MELROSE AVENUE,1,,BRONX,Failure to Yield Right-of-Way,10451.0,,0,04/14/2016,3411649,,,08:10:00,1
1107,SPRINGFIELD BOULEVARD,0,,0,-73.7548493,,,40.677928,"(40.677928, -73.7548493)",PASSENGER VEHICLE,0,0,,Failure to Yield Right-of-Way,0,136 AVENUE,0,PASSENGER VEHICLE,QUEENS,Failure to Yield Right-of-Way,11413.0,,0,04/14/2016,3424147,,,08:30:00,0
1124,NORTHERN BOULEVARD,0,,0,-73.73707399999998,,,40.7687955,"(40.7687955, -73.737074)",PASSENGER VEHICLE,0,0,,Failure to Yield Right-of-Way,0,251 STREET,0,PASSENGER VEHICLE,QUEENS,Failure to Yield Right-of-Way,11362.0,,0,04/14/2016,3427603,,,08:40:00,0
1125,PROSPECT EXPRESSWAY,0,,0,-73.9961894,,,40.6665019,"(40.6665019, -73.9961894)",PASSENGER VEHICLE,0,0,,Lost Consciousness,0,,0,SMALL COM VEH(4 TIRES),,Lost Consciousness,,,0,04/14/2016,3418150,,,08:40:00,0
1128,ROOSEVELT AVENUE,0,,0,-73.88393719999998,,,40.747630799999996,"(40.7476308, -73.8839372)",PASSENGER VEHICLE,0,0,,,0,82 STREET,0,,QUEENS,Failure to Yield Right-of-Way,11372.0,,0,04/14/2016,3427136,,,08:50:00,0
1134,CROWN STREET,0,,0,-73.93975999999998,,,40.6656874,"(40.6656874, -73.93976)",PASSENGER VEHICLE,0,0,,Lost Consciousness,0,ALBANY AVENUE,0,OTHER,BROOKLYN,Lost Consciousness,11213.0,,0,04/14/2016,3417816,,,09:01:00,0
1140,BROOKVILLE BOULEVARD,0,,0,-73.7392073,,,40.6656299,"(40.6656299, -73.7392073)",PASSENGER VEHICLE,0,0,,Failure to Yield Right-of-Way,0,SUNRISE HIGHWAY,0,PASSENGER VEHICLE,QUEENS,Failure to Yield Right-of-Way,11422.0,,0,04/14/2016,3424138,,,09:15:00,0
1156,2 AV,0,,0,-73.93266340000002,,,40.8040657,"(40.8040657, -73.9326634)",PASSENGER VEHICLE,0,0,,Failure to Yield Right-of-Way,0,E 127 ST,0,PASSENGER VEHICLE,MANHATTAN,Failure to Yield Right-of-Way,10035.0,,0,04/14/2016,3409936,,,09:50:00,0
1175,102 STREET,0,,0,-73.84281130000002,,,40.689873299999995,"(40.6898733, -73.8428113)",PASSENGER VEHICLE,0,0,,Failure to Yield Right-of-Way,0,ATLANTIC AVENUE,0,PASSENGER VEHICLE,QUEENS,Failure to Yield Right-of-Way,11418.0,,0,04/13/2016,3422459,,,00:30:00,0
1177,,0,,0,-74.0041807,1 CENTRE STREET,,40.7130009,"(40.7130009, -74.0041807)",PASSENGER VEHICLE,0,0,,Failure to Yield Right-of-Way,0,,0,PASSENGER VEHICLE,MANHATTAN,Failure to Yield Right-of-Way,10007.0,,0,04/13/2016,3405790,,,10:00:00,0
1188,BROADWAY,0,,0,-73.9467684,,,40.8314708,"(40.8314708, -73.9467684)",PASSENGER VEHICLE,0,0,,Lost Consciousness,0,WEST 153 STREET,0,PASSENGER VEHICLE,MANHATTAN,Lost Consciousness,10031.0,,0,04/13/2016,3410262,,,10:15:00,0
1191,DE KALB AVENUE,0,,1,-73.97862420000001,,,40.6898305,"(40.6898305, -73.9786242)",PASSENGER VEHICLE,0,0,,Failure to Yield Right-of-Way,0,ASHLAND PLACE,1,BICYCLE,BROOKLYN,Failure to Yield Right-of-Way,11201.0,,0,04/13/2016,3421171,,,10:20:00,0
1199,,0,,0,-73.7900997,172-01    HILLSIDE AVENUE,,40.711766600000004,"(40.7117666, -73.7900997)",SPORT UTILITY / STATION WAGON,0,0,,,0,,1,,QUEENS,Failure to Yield Right-of-Way,11432.0,,0,11/08/2016,3558106,,,12:11:00,1
1238,MARCUS GARVEY BOULEVARD,0,,0,-73.939532,,,40.6904835,"(40.6904835, -73.939532)",PASSENGER VEHICLE,0,0,,Failure to Yield Right-of-Way,0,VAN BUREN STREET,0,PASSENGER VEHICLE,BROOKLYN,Failure to Yield Right-of-Way,11221.0,,0,04/13/2016,3420148,,,11:15:00,0
1241,GERARD AVENUE,0,,0,-73.9297449,,,40.8176833,"(40.8176833, -73.9297449)",PASSENGER VEHICLE,0,0,,Failure to Yield Right-of-Way,0,EAST 146 STREET,0,PASSENGER VEHICLE,BRONX,Failure to Yield Right-of-Way,10451.0,,0,04/13/2016,3411151,,,11:30:00,0
1243,OAKDALE STREET,0,,0,-74.1649971,,,40.5404466,"(40.5404466, -74.1649971)",PASSENGER VEHICLE,4,0,,Failure to Yield Right-of-Way,0,PRESTON AVENUE,4,PASSENGER VEHICLE,STATEN ISLAND,Failure to Yield Right-of-Way,10312.0,,0,04/13/2016,3430964,,,11:56:00,0
1267,8 AVENUE,0,,0,-73.9377806,,,40.8284993,"(40.8284993, -73.9377806)",PASSENGER VEHICLE,1,0,,,0,WEST 154 STREET,1,,MANHATTAN,Failure to Yield Right-of-Way,10039.0,,0,04/13/2016,3410427,,,12:30:00,0
1268,BAY STREET,0,,1,-74.0759411,,,40.627165999999995,"(40.627166, -74.0759411)",PASSENGER VEHICLE,0,0,,Lost Consciousness,0,WATER STREET,1,BICYCLE,STATEN ISLAND,Lost Consciousness,10304.0,,0,04/13/2016,3429820,,,12:30:00,0
1283,VOORHIES AVENUE,0,,0,-73.9501034,,,40.5861291,"(40.5861291, -73.9501034)",PASSENGER VEHICLE,0,0,,Failure to Yield Right-of-Way,0,EAST 19 STREET,0,PASSENGER VEHICLE,BROOKLYN,Failure to Yield Right-of-Way,11235.0,,0,04/13/2016,3414989,,,13:00:00,0
1294,AVENUE J,0,,0,-73.94028809999998,,,40.6274006,"(40.6274006, -73.9402881)",PASSENGER VEHICLE,1,0,,Unspecified,0,EAST 37 STREET,1,PASSENGER VEHICLE,BROOKLYN,Failure to Yield Right-of-Way,11210.0,,0,11/08/2016,3556782,,,14:11:00,0
1307,EAST 55 STREET,0,,0,-73.9662395,,,40.758007299999996,"(40.7580073, -73.9662395)",SMALL COM VEH(4 TIRES),0,0,,Failure to Yield Right-of-Way,0,2 AVENUE,0,PASSENGER VEHICLE,MANHATTAN,Failure to Yield Right-of-Way,10022.0,,0,04/13/2016,3407827,,,13:10:00,0
1320,,0,,0,-73.9451878,152 PULASKI STREET,,40.6928249,"(40.6928249, -73.9451878)",PASSENGER VEHICLE,0,0,,Lost Consciousness,0,,0,PASSENGER VEHICLE,BROOKLYN,Lost Consciousness,11206.0,,0,04/13/2016,3420150,,,13:15:00,0
1327,OCEAN PARKWAY,0,,0,-73.965485,,,40.5978331,"(40.5978331, -73.965485)",PASSENGER VEHICLE,0,0,,Failure to Yield Right-of-Way,0,AVENUE U,0,PASSENGER VEHICLE,BROOKLYN,Failure to Yield Right-of-Way,11223.0,,0,04/13/2016,3414990,,,13:30:00,0
1329,,0,,0,-73.9797122,300 MADISON AVENUE,,40.7522355,"(40.7522355, -73.9797122)",PASSENGER VEHICLE,0,0,,Failure to Yield Right-of-Way,0,,0,SMALL COM VEH(4 TIRES),MANHATTAN,Failure to Yield Right-of-Way,10017.0,,0,04/13/2016,3407431,,,13:30:00,0
1330,NORTHERN BOULEVARD,0,,0,-73.8332862,,,40.7627471,"(40.7627471, -73.8332862)",PASSENGER VEHICLE,0,0,,Failure to Yield Right-of-Way,0,PRINCE STREET,0,PASSENGER VEHICLE,QUEENS,Failure to Yield Right-of-Way,11354.0,,0,04/13/2016,3426575,,,13:30:00,0
1334,EAST 176 STREET,0,,0,-73.90632059999999,,,40.8475785,"(40.8475785, -73.9063206)",PASSENGER VEHICLE,0,0,,Failure to Yield Right-of-Way,0,MONROE AVENUE,0,PASSENGER VEHICLE,BRONX,Failure to Yield Right-of-Way,10457.0,,0,04/13/2016,3412991,,,13:43:00,0
1338,,0,,0,-73.97955879999998,243 LEXINGTON AVENUE,,40.7466142,"(40.7466142, -73.9795588)",PASSENGER VEHICLE,0,0,,Failure to Yield Right-of-Way,0,,0,SMALL COM VEH(4 TIRES),MANHATTAN,Failure to Yield Right-of-Way,10016.0,,0,04/13/2016,3407826,,,13:50:00,0
1339,OAKDALE STREET,0,,0,-74.1649971,,,40.5404466,"(40.5404466, -74.1649971)",PASSENGER VEHICLE,0,0,,Failure to Yield Right-of-Way,0,PRESTON AVENUE,0,PASSENGER VEHICLE,STATEN ISLAND,Failure to Yield Right-of-Way,10312.0,,0,04/13/2016,3430966,,,13:50:00,0
1346,232 STREET,0,,0,-73.73779259999998,,,40.675214200000006,"(40.6752142, -73.7377926)",SPORT UTILITY / STATION WAGON,0,0,,Unspecified,0,MERRICK BOULEVARD,0,BICYCLE,QUEENS,Failure to Yield Right-of-Way,11413.0,,0,11/08/2016,3556680,,,16:11:00,0
1367,,0,,1,-73.9641814,195       WILLOUGHBY AVENUE,,40.6920474,"(40.6920474, -73.9641814)",PASSENGER VEHICLE,0,0,,Unspecified,0,,1,BICYCLE,BROOKLYN,Failure to Yield Right-of-Way,11205.0,,0,11/08/2016,3556693,,,16:11:00,0
1373,69 STREET,0,,0,-73.8911615,,,40.7194601,"(40.7194601, -73.8911615)",PASSENGER VEHICLE,2,0,,Unspecified,0,ELIOT AVENUE,2,PASSENGER VEHICLE,QUEENS,Failure to Yield Right-of-Way,11379.0,,0,11/08/2016,3557032,,,16:11:00,0
1383,LINDEN BOULEVARD,0,,0,-73.89062290000003,,,40.658577799999996,"(40.6585778, -73.8906229)",PASSENGER VEHICLE,2,0,,Failure to Yield Right-of-Way,0,PENNSYLVANIA AVENUE,2,,BROOKLYN,Failure to Yield Right-of-Way,11207.0,,0,04/13/2016,3419022,,,14:25:00,0
1404,CENTRAL PARK WEST,0,,0,-73.9679255,,,40.787222799999995,"(40.7872228, -73.9679255)",PASSENGER VEHICLE,0,0,,Failure to Yield Right-of-Way,0,WEST 89 STREET,0,PASSENGER VEHICLE,MANHATTAN,Failure to Yield Right-of-Way,10024.0,,0,04/13/2016,3409643,,,15:15:00,0
1421,21 STREET,0,,0,-73.9424305,,,40.753996,"(40.753996, -73.9424305)",PASSENGER VEHICLE,0,0,,Failure to Yield Right-of-Way,0,41 AVENUE,0,PASSENGER VEHICLE,QUEENS,Failure to Yield Right-of-Way,11101.0,,0,04/13/2016,3429046,,,15:50:00,0
1431,,0,,0,-73.9194883,1011 SHERIDAN AVENUE,,40.829413,"(40.829413, -73.9194883)",PASSENGER VEHICLE,0,0,,Lost Consciousness,0,,0,,BRONX,Lost Consciousness,10456.0,,0,04/13/2016,3412366,,,16:30:00,0
1438,,0,,0,-73.9607803,2011 CHURCH AVENUE,,40.6501171,"(40.6501171, -73.9607803)",PASSENGER VEHICLE,0,0,,Failure to Yield Right-of-Way,0,,0,PASSENGER VEHICLE,BROOKLYN,Failure to Yield Right-of-Way,11226.0,,0,04/13/2016,3417501,,,16:40:00,0
1443,BAY PARKWAY,0,,0,-73.9973389,,,40.5985519,"(40.5985519, -73.9973389)",PASSENGER VEHICLE,0,0,,Failure to Yield Right-of-Way,0,BATH AVENUE,0,PASSENGER VEHICLE,BROOKLYN,Failure to Yield Right-of-Way,11214.0,,0,04/13/2016,3415367,,,16:45:00,0
1450,AVENUE Y,0,,0,-73.9528583,,,40.5902941,"(40.5902941, -73.9528583)",PASSENGER VEHICLE,0,0,,Lost Consciousness,0,EAST 17 STREET,0,PASSENGER VEHICLE,BROOKLYN,Lost Consciousness,11235.0,,0,04/13/2016,3414986,,,17:00:00,0
1451,11 AVENUE,0,,0,-74.00879090000002,,,40.7423751,"(40.7423751, -74.0087909)",PASSENGER VEHICLE,0,0,,Failure to Yield Right-of-Way,0,WEST 14 STREET,0,PASSENGER VEHICLE,MANHATTAN,Failure to Yield Right-of-Way,10014.0,,0,04/13/2016,3406698,,,17:00:00,0
1487,TILLARY STREET,0,,0,-73.9871041,,,40.696131,"(40.696131, -73.9871041)",PASSENGER VEHICLE,0,0,,Lost Consciousness,0,JAY STREET,0,PASSENGER VEHICLE,BROOKLYN,Lost Consciousness,11201.0,,0,04/13/2016,3420916,,,17:10:00,0
1496,NEW YORK AVENUE,0,,0,-73.9473543,,,40.6572811,"(40.6572811, -73.9473543)",PASSENGER VEHICLE,0,0,,Failure to Yield Right-of-Way,0,WINTHROP STREET,0,PASSENGER VEHICLE,BROOKLYN,Failure to Yield Right-of-Way,11203.0,,0,04/13/2016,3417813,,,18:00:00,0
1501,QUENTIN ROAD,0,,0,-73.95439040000002,,,40.6086739,"(40.6086739, -73.9543904)",PASSENGER VEHICLE,0,0,,Lost Consciousness,0,EAST 19 STREET,0,PASSENGER VEHICLE,BROOKLYN,Lost Consciousness,11229.0,,0,04/13/2016,3414992,,,18:00:00,0
1544,,0,,0,-73.9430031,741 FLUSHING AVENUE,,40.7006025,"(40.7006025, -73.9430031)",MOTORCYCLE,1,0,,Failure to Yield Right-of-Way,0,,1,PASSENGER VEHICLE,BROOKLYN,Failure to Yield Right-of-Way,11206.0,,0,04/13/2016,3421520,,,18:30:00,0
1546,ARDEN AVENUE,0,,0,-74.1927507,,,40.554086299999994,"(40.5540863, -74.1927507)",SPORT UTILITY / STATION WAGON,0,0,,Unspecified,0,NEDRA LANE,0,BICYCLE,STATEN ISLAND,Failure to Yield Right-of-Way,10312.0,,0,11/08/2016,3557478,,,19:11:00,0
1556,,0,,0,-73.8844767,2986 FULTON STREET,,40.6799921,"(40.6799921, -73.8844767)",PASSENGER VEHICLE,0,0,,Failure to Yield Right-of-Way,0,,0,PASSENGER VEHICLE,BROOKLYN,Failure to Yield Right-of-Way,11208.0,,0,04/13/2016,3419024,,,18:35:00,0
1582,KINGS HIGHWAY,0,,0,-73.95740450000002,,,40.6091307,"(40.6091307, -73.9574045)",PASSENGER VEHICLE,0,0,,Lost Consciousness,0,EAST 16 STREET,0,PASSENGER VEHICLE,BROOKLYN,Lost Consciousness,11229.0,,0,04/13/2016,3415007,,,19:15:00,0
1605,MAJOR DEEGAN EXPRESSWAY,0,,0,-73.9190488,,,40.8045949,"(40.8045949, -73.9190488)",PASSENGER VEHICLE,0,0,,Lost Consciousness,0,SAINT ANNS AVENUE,0,PASSENGER VEHICLE,BRONX,Lost Consciousness,10454.0,,0,04/13/2016,3411169,,,19:30:00,0
1616,5 AVENUE,0,,0,-73.95481559999998,,,40.7892055,"(40.7892055, -73.9548156)",PASSENGER VEHICLE,0,0,,Failure to Yield Right-of-Way,0,EAST 98 STREET,0,AMBULANCE,MANHATTAN,Failure to Yield Right-of-Way,10029.0,,0,04/13/2016,3409500,,,19:30:00,0
1619,HYLAN BOULEVARD,0,,0,-74.09471040000003,,,40.5842015,"(40.5842015, -74.0947104)",PASSENGER VEHICLE,0,0,,Lost Consciousness,0,NAUGHTON AVENUE,0,MOTORCYCLE,STATEN ISLAND,Lost Consciousness,10305.0,,0,04/13/2016,3430691,,,19:30:00,0
1624,,0,,0,-73.8725692,339 GATEWAY DRIVE,,40.6492737,"(40.6492737, -73.8725692)",PASSENGER VEHICLE,0,0,,Failure to Yield Right-of-Way,0,,0,PASSENGER VEHICLE,BROOKLYN,Failure to Yield Right-of-Way,11239.0,,0,04/13/2016,3419026,,,19:50:00,0
1636,PROSPECT PARK WEST,0,,0,-73.9763324,,,40.665214899999995,"(40.6652149, -73.9763324)",PASSENGER VEHICLE,0,0,,Lost Consciousness,0,8 STREET,0,PASSENGER VEHICLE,BROOKLYN,Lost Consciousness,11215.0,,0,04/13/2016,3419881,,,20:15:00,0
1654,56 AVENUE,0,,0,-73.7837935,,,40.7454305,"(40.7454305, -73.7837935)",SPORT UTILITY / STATION WAGON,0,0,,Unspecified,0,194 STREET,0,SPORT UTILITY / STATION WAGON,QUEENS,Failure to Yield Right-of-Way,11365.0,,0,11/08/2016,3556359,,,07:11:00,0
1688,AVENUE D,0,,0,-73.9092916,,,40.6488172,"(40.6488172, -73.9092916)",PASSENGER VEHICLE,0,0,,Failure to Yield Right-of-Way,0,EAST 95 STREET,0,PASSENGER VEHICLE,BROOKLYN,Failure to Yield Right-of-Way,11236.0,,0,04/13/2016,3417141,,,06:30:00,0
1721,AVERY AVENUE,0,,0,-73.8323919,,,40.7523184,"(40.7523184, -73.8323919)",PASSENGER VEHICLE,0,0,,Failure to Yield Right-of-Way,0,COLLEGE POINT BOULEVARD,0,PASSENGER VEHICLE,QUEENS,Failure to Yield Right-of-Way,11355.0,,0,04/13/2016,3426564,,,07:15:00,0
1727,ATLANTIC AVENUE,0,,0,-73.8978448,,,40.6756735,"(40.6756735, -73.8978448)",SMALL COM VEH(4 TIRES),0,0,,Lost Consciousness,0,SHEFFIELD AVENUE,0,PASSENGER VEHICLE,BROOKLYN,Lost Consciousness,11207.0,,0,04/13/2016,3419025,,,08:00:00,0
1737,BATH AVENUE,0,,0,-73.9987504,,,40.5995208,"(40.5995208, -73.9987504)",PASSENGER VEHICLE,0,0,,Failure to Yield Right-of-Way,0,BAY 28 STREET,0,PASSENGER VEHICLE,BROOKLYN,Failure to Yield Right-of-Way,11214.0,,0,04/13/2016,3415362,,,08:10:00,0
1740,EAST 142 STREET,0,,0,-73.90820529999998,,,40.8071531,"(40.8071531, -73.9082053)",PASSENGER VEHICLE,0,0,,Failure to Yield Right-of-Way,0,SOUTHERN BOULEVARD,0,PASSENGER VEHICLE,BRONX,Failure to Yield Right-of-Way,10454.0,,0,04/13/2016,3411160,,,08:19:00,0
1745,27 STREET,0,,0,-73.9404473,,,40.7436445,"(40.7436445, -73.9404473)",SMALL COM VEH(4 TIRES),0,0,,,0,47 AVENUE,0,,QUEENS,Failure to Yield Right-of-Way,11101.0,,0,04/13/2016,3425895,,,08:24:00,0
1748,AMBOY ROAD,0,,0,-74.1660903,,,40.5416555,"(40.5416555, -74.1660903)",PASSENGER VEHICLE,0,0,,Lost Consciousness,0,PRESTON AVENUE,0,PASSENGER VEHICLE,STATEN ISLAND,Lost Consciousness,10312.0,,0,04/13/2016,3430962,,,08:30:00,0
1755,BRUCKNER BOULEVARD,0,,0,-73.9197796,,,40.8035936,"(40.8035936, -73.9197796)",PASSENGER VEHICLE,0,0,,Failure to Yield Right-of-Way,0,SAINT ANNS AVENUE,0,,BRONX,Failure to Yield Right-of-Way,10454.0,,0,04/13/2016,3411161,,,08:37:00,0
1767,,0,,0,-73.9997427,,,40.7079682,"(40.7079682, -73.9997427)",PASSENGER VEHICLE,0,0,,Lost Consciousness,0,,0,PASSENGER VEHICLE,,Lost Consciousness,,,0,04/13/2016,3405464,,,09:21:00,0
1779,EAST FORDHAM ROAD,0,,0,-73.8917708,,,40.8618712,"(40.8618712, -73.8917708)",PASSENGER VEHICLE,0,0,,Lost Consciousness,0,DECATUR AVENUE,0,,BRONX,Lost Consciousness,10458.0,,0,04/13/2016,3414374,,,09:32:00,0
1791,EAST 12 STREET,0,,0,-73.96185759999999,,,40.6126538,"(40.6126538, -73.9618576)",PASSENGER VEHICLE,0,0,,Unspecified,0,AVENUE O,0,PASSENGER VEHICLE,BROOKLYN,Failure to Yield Right-of-Way,11230.0,,0,11/07/2016,3557048,,,11:11:00,0
1806,HYLAN BOULEVARD,0,,0,-74.2300632,,,40.5077536,"(40.5077536, -74.2300632)",PASSENGER VEHICLE,0,0,,Failure to Yield Right-of-Way,0,PAGE AVENUE,0,,STATEN ISLAND,Failure to Yield Right-of-Way,10309.0,,0,04/13/2016,3430969,,,09:50:00,0
1807,EDWARD CURRY AVENUE,0,,0,-74.1904078,,,40.5709761,"(40.5709761, -74.1904078)",PASSENGER VEHICLE,0,0,,Lost Consciousness,0,,0,PASSENGER VEHICLE,,Lost Consciousness,,,0,04/13/2016,3430204,,,09:50:00,0
1813,,0,,0,-73.9173662,240 SAINT ANNS AVENUE,,40.8069734,"(40.8069734, -73.9173662)",OTHER,0,0,,Lost Consciousness,0,,0,PASSENGER VEHICLE,BRONX,Lost Consciousness,10454.0,,0,04/12/2016,3411137,,,10:00:00,0
1822,BRUSH AVENUE,0,,0,-73.83909670000001,,,40.8245695,"(40.8245695, -73.8390967)",PASSENGER VEHICLE,0,0,,,0,LAFAYETTE AVENUE,0,,BRONX,Lost Consciousness,10465.0,,0,04/12/2016,3412671,,,10:55:00,0
1835,KINGSTON PLACE,0,,0,-73.7914015,,,40.7130206,"(40.7130206, -73.7914015)",PASSENGER VEHICLE,1,0,,Failure to Yield Right-of-Way,0,HIGHLAND AVENUE,1,PASSENGER VEHICLE,QUEENS,Failure to Yield Right-of-Way,11432.0,,0,04/12/2016,3425245,,,11:00:00,0
1854,WEST STREET,0,,0,-74.0156791,,,40.7076833,"(40.7076833, -74.0156791)",PASSENGER VEHICLE,0,0,,Lost Consciousness,0,WEST THAMES STREET,0,,MANHATTAN,Lost Consciousness,10006.0,,0,04/12/2016,3405454,,,11:30:00,0
1870,17 AVENUE,0,,0,-73.9965818,,,40.616555,"(40.616555, -73.9965818)",PASSENGER VEHICLE,2,0,,Failure to Yield Right-of-Way,0,72 STREET,2,PASSENGER VEHICLE,BROOKLYN,Failure to Yield Right-of-Way,11204.0,,0,04/12/2016,3415354,,,11:30:00,0
1871,,0,,0,-73.99347309999997,133 CLINTON STREET,,40.6920583,"(40.6920583, -73.9934731)",MOTORCYCLE,0,0,,Lost Consciousness,0,,0,PASSENGER VEHICLE,BROOKLYN,Lost Consciousness,11201.0,,0,04/12/2016,3420892,,,11:35:00,0
1874,RODNEY STREET,0,,0,-73.9529114,,,40.714061799999996,"(40.7140618, -73.9529114)",PASSENGER VEHICLE,0,0,,Lost Consciousness,0,METROPOLITAN AVENUE,0,LARGE COM VEH(6 OR MORE TIRES),BROOKLYN,Lost Consciousness,11211.0,,0,04/12/2016,3421506,,,11:45:00,0
1881,EAST 104 STREET,0,,0,-73.94339659999999,,,40.7893076,"(40.7893076, -73.9433966)",OTHER,0,0,,,0,2 AVENUE,1,,MANHATTAN,Failure to Yield Right-of-Way,10029.0,,0,04/12/2016,3433477,,,11:55:00,1
1888,WEST 44 STREET,0,,0,-73.9831689,,,40.7561391,"(40.7561391, -73.9831689)",PASSENGER VEHICLE,0,0,,Lost Consciousness,0,AVENUE OF THE AMERICAS,0,,MANHATTAN,Lost Consciousness,10036.0,,0,04/12/2016,3407426,,,12:09:00,0
1890,NORTHERN BOULEVARD,0,,0,-73.81292009999999,,,40.765057,"(40.765057, -73.8129201)",PICK-UP TRUCK,0,0,,Lost Consciousness,0,MURRAY STREET,0,,QUEENS,Lost Consciousness,11354.0,,0,04/12/2016,3426553,,,12:15:00,0
1893,LEONARD STREET,0,,0,-73.9473651,,,40.712061299999995,"(40.7120613, -73.9473651)",PASSENGER VEHICLE,0,0,,Failure to Yield Right-of-Way,0,POWERS STREET,0,OTHER,BROOKLYN,Failure to Yield Right-of-Way,11211.0,,0,04/12/2016,3421505,,,12:20:00,0
1913,FRANCIS LEWIS BOULEVARD,0,,0,-73.77753349999998,,,40.74714779999999,"(40.7471478, -73.7775335)",PASSENGER VEHICLE,2,0,,Unspecified,0,56 AVENUE,2,SPORT UTILITY / STATION WAGON,QUEENS,Failure to Yield Right-of-Way,11364.0,,0,11/07/2016,3555750,,,14:11:00,0
1914,107 AVENUE,0,,0,-73.82910559999998,,,40.68272279999999,"(40.6827228, -73.8291056)",PASSENGER VEHICLE,2,0,,Unspecified,0,112 STREET,2,PASSENGER VEHICLE,QUEENS,Failure to Yield Right-of-Way,11419.0,,0,11/07/2016,3555852,,,14:11:00,0
1917,EAST 163 STREET,0,,0,-73.89689190000001,,,40.8209989,"(40.8209989, -73.8968919)",,0,0,,,0,INTERVALE AVENUE,0,,BRONX,Failure to Yield Right-of-Way,10459.0,,0,11/07/2016,3556371,,,15:11:00,0
1931,59 STREET,0,,0,-73.9778514,,,40.6172885,"(40.6172885, -73.9778514)",PASSENGER VEHICLE,1,0,,Failure to Yield Right-of-Way,0,BAY PARKWAY,1,PASSENGER VEHICLE,BROOKLYN,Failure to Yield Right-of-Way,11204.0,,0,04/12/2016,3416095,,,13:50:00,0
1932,KENMARE STREET,0,,0,-73.99497109999999,,,40.720625899999995,"(40.7206259, -73.9949711)",PASSENGER VEHICLE,0,0,,Lost Consciousness,0,ELIZABETH STREET,0,PASSENGER VEHICLE,MANHATTAN,Lost Consciousness,10012.0,,0,04/12/2016,3405787,,,13:55:00,0
1969,AVENUE D,0,,0,-73.9523759,,,40.6407075,"(40.6407075, -73.9523759)",PASSENGER VEHICLE,0,0,,Failure to Yield Right-of-Way,0,EAST 26 STREET,0,PASSENGER VEHICLE,BROOKLYN,Failure to Yield Right-of-Way,11226.0,,0,04/12/2016,3416539,,,14:30:00,0
1972,224 STREET,0,,0,-73.7322861,,,40.7249753,"(40.7249753, -73.7322861)",PASSENGER VEHICLE,1,0,,Failure to Yield Right-of-Way,0,EDMORE AVENUE,1,PASSENGER VEHICLE,QUEENS,Failure to Yield Right-of-Way,11428.0,,0,04/12/2016,3424105,,,14:30:00,0
1997,46 ROAD,0,,0,-73.78113420000003,,,40.7540907,"(40.7540907, -73.7811342)",PASSENGER VEHICLE,0,0,,Lost Consciousness,0,FRANCIS LEWIS BOULEVARD,0,PASSENGER VEHICLE,QUEENS,Lost Consciousness,11361.0,,0,04/12/2016,3427579,,,16:00:00,0
2003,GLENMORE AVENUE,0,,0,-73.8924475,,,40.6737143,"(40.6737143, -73.8924475)",PASSENGER VEHICLE,3,0,,Unspecified,0,BRADFORD STREET,3,SPORT UTILITY / STATION WAGON,BROOKLYN,Failure to Yield Right-of-Way,11207.0,,0,10/25/2016,3546915,,,06:10:00,0
2023,CLASSON AVENUE,0,,0,-73.9600039,,,40.6888813,"(40.6888813, -73.9600039)",PASSENGER VEHICLE,0,0,,Lost Consciousness,0,LAFAYETTE AVENUE,0,,BROOKLYN,Lost Consciousness,11205.0,,0,04/12/2016,3420146,,,16:10:00,0
2029,BELL BOULEVARD,0,,0,-73.775599,,,40.7793235,"(40.7793235, -73.775599)",SPORT UTILITY / STATION WAGON,0,0,,Unspecified,0,24 AVENUE,0,SPORT UTILITY / STATION WAGON,QUEENS,Failure to Yield Right-of-Way,11360.0,,0,11/07/2016,3556134,,,16:11:00,0
2037,AVENUE S,0,,0,-73.94751109999999,,,40.604551,"(40.604551, -73.9475111)",VAN,1,0,,Failure to Yield Right-of-Way,0,BEDFORD AVENUE,1,PASSENGER VEHICLE,BROOKLYN,Failure to Yield Right-of-Way,11229.0,,0,04/12/2016,3415000,,,16:17:00,0
2059,,0,,0,-73.87718819999998,86-26 BROADWAY,,40.7378744,"(40.7378744, -73.8771882)",PASSENGER VEHICLE,0,0,,,0,,1,,QUEENS,Failure to Yield Right-of-Way,11373.0,,0,04/12/2016,3427119,,,16:35:00,1
2069,HAMILTON PLACE,0,,0,-73.99684930000002,,,40.6709017,"(40.6709017, -73.9968493)",PASSENGER VEHICLE,1,0,,Failure to Yield Right-of-Way,0,13 STREET,1,,BROOKLYN,Failure to Yield Right-of-Way,11215.0,,0,04/12/2016,3419870,,,17:01:00,0
2079,KENNEDY STREET,0,,0,-73.78103109999998,,,40.7733668,"(40.7733668, -73.7810311)",SPORT UTILITY / STATION WAGON,0,0,,Unspecified,0,30 AVENUE,0,PASSENGER VEHICLE,QUEENS,Failure to Yield Right-of-Way,11360.0,,0,10/24/2016,3546386,,,08:10:00,0
2092,10 AVENUE,0,,0,-74.0152413,,,40.6231333,"(40.6231333, -74.0152413)",PASSENGER VEHICLE,0,0,,Failure to Yield Right-of-Way,0,77 STREET,0,PASSENGER VEHICLE,BROOKLYN,Failure to Yield Right-of-Way,11228.0,,0,04/12/2016,3416846,,,17:20:00,0
2098,WEST 25 STREET,0,,0,-73.99755309999998,,,40.7465803,"(40.7465803, -73.9975531)",PASSENGER VEHICLE,0,0,,Failure to Yield Right-of-Way,0,8 AVENUE,0,PASSENGER VEHICLE,MANHATTAN,Failure to Yield Right-of-Way,10001.0,,0,04/12/2016,3406688,,,17:30:00,0
2138,69 PLACE,0,,0,-73.8816772,,,40.7012804,"(40.7012804, -73.8816772)",PASSENGER VEHICLE,0,0,,Failure to Yield Right-of-Way,0,COOPER AVENUE,0,PASSENGER VEHICLE,QUEENS,Failure to Yield Right-of-Way,11385.0,,0,04/12/2016,3423426,,,18:00:00,0
2146,OCEAN AVENUE,0,,0,-73.9597285,,,40.643331599999996,"(40.6433316, -73.9597285)",PASSENGER VEHICLE,0,0,,Failure to Yield Right-of-Way,0,CORTELYOU ROAD,0,PASSENGER VEHICLE,BROOKLYN,Failure to Yield Right-of-Way,11226.0,,0,04/12/2016,3417486,,,18:15:00,0
2148,CHURCH AVENUE,0,,0,-73.93329659999998,,,40.6516058,"(40.6516058, -73.9332966)",PASSENGER VEHICLE,0,0,,Lost Consciousness,0,SCHENECTADY AVENUE,0,PASSENGER VEHICLE,BROOKLYN,Lost Consciousness,11203.0,,0,04/07/2016,3416492,,,15:45:00,0
2149,,0,,0,-73.9402558,1338 BERGEN STREET,,40.675560600000004,"(40.6755606, -73.9402558)",PASSENGER VEHICLE,0,0,,Lost Consciousness,0,,0,PASSENGER VEHICLE,BROOKLYN,Lost Consciousness,11213.0,,0,04/07/2016,3419571,,,15:45:00,0
2160,SAINT NICHOLAS AVENUE,0,,0,-73.9394712,,,40.840953000000006,"(40.840953, -73.9394712)",PASSENGER VEHICLE,0,0,,,0,WEST 168 STREET,1,,MANHATTAN,Failure to Yield Right-of-Way,10032.0,,0,11/07/2016,3558142,,,21:11:00,1
2192,,0,,0,-73.85272370000001,59-30 108 STREET,,40.7389656,"(40.7389656, -73.8527237)",PASSENGER VEHICLE,0,0,,Lost Consciousness,0,,0,PASSENGER VEHICLE,QUEENS,Lost Consciousness,11368.0,,0,04/12/2016,3427123,,,19:15:00,0
2200,FLATLANDS AVENUE,0,,0,-73.92670720000002,,,40.626821899999996,"(40.6268219, -73.9267072)",PASSENGER VEHICLE,0,0,,Failure to Yield Right-of-Way,0,EAST 51 STREET,0,,BROOKLYN,Failure to Yield Right-of-Way,11234.0,,0,04/12/2016,3415695,,,19:30:00,0
2208,FORT HAMILTON PARKWAY,0,,0,-74.03016509999998,,,40.613927000000004,"(40.613927, -74.0301651)",PASSENGER VEHICLE,0,0,,Failure to Yield Right-of-Way,0,97 STREET,0,PASSENGER VEHICLE,BROOKLYN,Failure to Yield Right-of-Way,11209.0,,0,04/12/2016,3416860,,,19:45:00,0
2228,CLARENDON ROAD,0,,0,-73.9209829,,,40.6449749,"(40.6449749, -73.9209829)",PASSENGER VEHICLE,1,0,,Failure to Yield Right-of-Way,0,EAST 59 STREET,1,PASSENGER VEHICLE,BROOKLYN,Failure to Yield Right-of-Way,11203.0,,0,04/12/2016,3416457,,,20:42:00,0
2267,SHORE ROAD,0,,0,-74.03558879999999,,,40.6397622,"(40.6397622, -74.0355888)",PASSENGER VEHICLE,0,0,,Failure to Yield Right-of-Way,0,68 STREET,0,PASSENGER VEHICLE,BROOKLYN,Failure to Yield Right-of-Way,11220.0,,0,04/12/2016,3416861,,,22:00:00,0
2272,EAST 58 STREET,0,,0,-73.96480179999998,,,40.7599831,"(40.7599831, -73.9648018)",PASSENGER VEHICLE,0,0,,Lost Consciousness,0,2 AVENUE,0,PASSENGER VEHICLE,MANHATTAN,Lost Consciousness,10022.0,,0,04/12/2016,3407821,,,22:26:00,0
2288,82 STREET,0,,0,-73.888456,,,40.7665729,"(40.7665729, -73.888456)",PASSENGER VEHICLE,0,0,,Failure to Yield Right-of-Way,0,,0,PASSENGER VEHICLE,,Failure to Yield Right-of-Way,,,0,04/12/2016,3429475,,,23:22:00,0
2295,GRAND STREET,0,,0,-73.9455945,,,40.711481299999996,"(40.7114813, -73.9455945)",PASSENGER VEHICLE,0,0,,,0,MANHATTAN AVENUE,0,,BROOKLYN,Failure to Yield Right-of-Way,11211.0,,0,11/07/2016,3557402,,,09:11:00,0
2334,NORTHERN BOULEVARD,0,,0,-73.7755711,,,40.7586802,"(40.7586802, -73.7755711)",PASSENGER VEHICLE,0,0,,Lost Consciousness,0,208 STREET,0,,QUEENS,Lost Consciousness,11361.0,,0,04/12/2016,3427568,,,06:50:00,0
2350,215 STREET,0,,0,-73.7423804,,,40.70828820000001,"(40.7082882, -73.7423804)",PASSENGER VEHICLE,1,0,,Failure to Yield Right-of-Way,0,110 AVENUE,1,PASSENGER VEHICLE,QUEENS,Failure to Yield Right-of-Way,11429.0,,0,04/12/2016,3424098,,,08:40:00,0
2356,,0,,0,-73.9811088,212 EAST 26 STREET,,40.740446999999996,"(40.740447, -73.9811088)",PASSENGER VEHICLE,0,0,,Lost Consciousness,0,,0,PASSENGER VEHICLE,MANHATTAN,Lost Consciousness,10010.0,,0,04/12/2016,3407024,,,09:09:00,0
2392,WEST 183 STREET,0,,0,-73.9086095,,,40.86004129999999,"(40.8600413, -73.9086095)",PASSENGER VEHICLE,0,0,,,0,ANDREWS AVENUE,0,,BRONX,Failure to Yield Right-of-Way,10468.0,,0,04/12/2016,3414361,,,09:30:00,0
2393,CEDAR STREET,0,,0,-73.9255647,,,40.69831170000001,"(40.6983117, -73.9255647)",SMALL COM VEH(4 TIRES),0,0,,Lost Consciousness,0,CENTRAL AVENUE,0,PASSENGER VEHICLE,BROOKLYN,Lost Consciousness,11221.0,,0,04/12/2016,3420595,,,09:30:00,0
2402,71 AVENUE,0,,0,-73.8483082,,,40.7145864,"(40.7145864, -73.8483082)",PASSENGER VEHICLE,0,0,,Failure to Yield Right-of-Way,0,INGRAM STREET,0,PASSENGER VEHICLE,QUEENS,Failure to Yield Right-of-Way,11375.0,,0,04/12/2016,3428046,,,09:46:00,0
2413,AMSTERDAM AVENUE,0,,0,-73.9620072,,,40.8055091,"(40.8055091, -73.9620072)",SMALL COM VEH(4 TIRES),0,0,,,0,WEST 114 STREET,0,,MANHATTAN,Failure to Yield Right-of-Way,10025.0,,0,04/12/2016,3410081,,,09:50:00,0
2420,JANE STREET,0,,0,-74.00647009999999,,,40.7381401,"(40.7381401, -74.0064701)",PASSENGER VEHICLE,0,0,,Lost Consciousness,0,GREENWICH STREET,0,OTHER,MANHATTAN,Lost Consciousness,10014.0,,0,04/11/2016,3433394,,,00:00:00,0
2427,SEWARD AVENUE,0,,0,-73.84852059999999,,,40.8211239,"(40.8211239, -73.8485206)",PASSENGER VEHICLE,0,0,,Failure to Yield Right-of-Way,0,CASTLE HILL AVENUE,0,PASSENGER VEHICLE,BRONX,Failure to Yield Right-of-Way,10473.0,,0,04/11/2016,3412001,,,10:00:00,0
2428,20 AVENUE,0,,0,-73.98406820000002,,,40.618241999999995,"(40.618242, -73.9840682)",PASSENGER VEHICLE,0,0,,Failure to Yield Right-of-Way,0,62 STREET,0,PASSENGER VEHICLE,BROOKLYN,Failure to Yield Right-of-Way,11204.0,,0,04/11/2016,3415342,,,10:00:00,0
2435,HEWES STREET,0,,0,-73.9557023,,,40.7048762,"(40.7048762, -73.9557023)",PASSENGER VEHICLE,0,0,,Lost Consciousness,0,MARCY AVENUE,0,PASSENGER VEHICLE,BROOKLYN,Lost Consciousness,11211.0,,0,04/11/2016,3421490,,,10:09:00,0
2450,,0,,0,-73.9310592,,,40.8281151,"(40.8281151, -73.9310592)",SPORT UTILITY / STATION WAGON,0,0,,Driver Inattention/Distraction,0,,0,PASSENGER VEHICLE,,Failure to Yield Right-of-Way,,,0,11/06/2016,3556582,,,20:11:00,0
2461,EAST 96 STREET,0,,0,-73.94933309999998,,,40.7851932,"(40.7851932, -73.9493331)",PASSENGER VEHICLE,0,0,,Lost Consciousness,0,3 AVENUE,0,PASSENGER VEHICLE,MANHATTAN,Lost Consciousness,10128.0,,0,04/11/2016,3409491,,,10:45:00,0
2466,130 STREET,0,,0,-73.81891309999997,,,40.69585470000001,"(40.6958547, -73.8189131)",SPORT UTILITY / STATION WAGON,0,0,,Unspecified,0,ATLANTIC AVENUE,0,PASSENGER VEHICLE,QUEENS,Failure to Yield Right-of-Way,11419.0,,0,11/06/2016,3555346,,,21:11:00,0
2467,3 AVENUE,0,,0,-73.8911057,,,40.8574269,"(40.8574269, -73.8911057)",PASSENGER VEHICLE,0,0,,Unspecified,0,EAST 187 STREET,0,,BRONX,Failure to Yield Right-of-Way,10458.0,,0,11/06/2016,3558984,,,22:11:00,0
2476,MCBRIDE STREET,0,,0,-73.75709470000002,,,40.606845299999996,"(40.6068453, -73.7570947)",PASSENGER VEHICLE,0,0,,Failure to Yield Right-of-Way,0,DIX AVENUE,0,PASSENGER VEHICLE,QUEENS,Failure to Yield Right-of-Way,11691.0,,0,04/11/2016,3422105,,,11:00:00,0
2477,FARMERS BLVD,0,Failure to Yield Right-of-Way,0,-73.76238590000001,,,40.6916677,"(40.6916677, -73.7623859)",PASSENGER VEHICLE,4,0,,Failure to Yield Right-of-Way,0,LINDEN BLVD,4,PASSENGER VEHICLE,QUEENS,Failure to Yield Right-of-Way,11412.0,,0,04/11/2016,3428475,,,11:03:00,0
2480,8 AVENUE,0,,0,-73.98929759999999,,,40.75790739999999,"(40.7579074, -73.9892976)",OTHER,0,0,,Failure to Yield Right-of-Way,0,WEST 43 STREET,0,PASSENGER VEHICLE,MANHATTAN,Failure to Yield Right-of-Way,10036.0,,0,04/11/2016,3407407,,,11:15:00,0
2488,MELROSE AVENUE,0,,0,-73.91384000000002,,,40.8241884,"(40.8241884, -73.91384)",PASSENGER VEHICLE,0,0,,Failure to Yield Right-of-Way,0,EAST 161 STREET,0,PASSENGER VEHICLE,BRONX,Failure to Yield Right-of-Way,10451.0,,0,04/11/2016,3411641,,,11:25:00,0
2502,AMSTERDAM AVENUE,0,,0,-73.9562587,,,40.8133899,"(40.8133899, -73.9562587)",PASSENGER VEHICLE,0,0,,Failure to Yield Right-of-Way,0,WEST 125 STREET,0,PASSENGER VEHICLE,MANHATTAN,Failure to Yield Right-of-Way,10027.0,,0,04/11/2016,3410079,,,11:58:00,0
2508,26 AVENUE,0,Lost Consciousness,0,-73.79565799999997,,,40.7730369,"(40.7730369, -73.795658)",PASSENGER VEHICLE,0,0,,Lost Consciousness,0,169 STREET,0,PASSENGER VEHICLE,QUEENS,Lost Consciousness,11358.0,PASSENGER VEHICLE,0,04/11/2016,3426532,,,12:25:00,0
2515,AVENUE X,0,,0,-73.9674438,,,40.5908509,"(40.5908509, -73.9674438)",PASSENGER VEHICLE,0,0,,Unspecified,0,EAST 3 STREET,0,,BROOKLYN,Failure to Yield Right-of-Way,11223.0,,0,11/06/2016,3555426,,,06:11:00,0
2518,ROCKAWAY BOULEVARD,0,,0,-73.8652337,,,40.685894399999995,"(40.6858944, -73.8652337)",SPORT UTILITY / STATION WAGON,0,0,,Unspecified,0,91 AVENUE,0,SPORT UTILITY / STATION WAGON,QUEENS,Failure to Yield Right-of-Way,11421.0,,0,11/06/2016,3555278,,,08:11:00,0
2522,BROOKLYN BRIDGE,0,,0,-73.98956290000002,,,40.701529,"(40.701529, -73.9895629)",PASSENGER VEHICLE,0,0,,Lost Consciousness,0,,0,,,Lost Consciousness,,,0,04/11/2016,3420889,,,12:30:00,0
2533,STUYVESANT AVENUE,0,Lost Consciousness,0,-73.9347052,,PASSENGER VEHICLE,40.6962888,"(40.6962888, -73.9347052)",PASSENGER VEHICLE,0,0,Lost Consciousness,Lost Consciousness,0,VERNON AVENUE,0,PASSENGER VEHICLE,BROOKLYN,Lost Consciousness,11221.0,PASSENGER VEHICLE,0,04/11/2016,3420344,Lost Consciousness,PASSENGER VEHICLE,13:22:00,0
2539,KNICKERBOCKER AVENUE,0,,0,-73.921631,,,40.700675,"(40.700675, -73.921631)",PASSENGER VEHICLE,0,0,,Failure to Yield Right-of-Way,0,STOCKHOLM STREET,0,PASSENGER VEHICLE,BROOKLYN,Failure to Yield Right-of-Way,11237.0,,0,04/11/2016,3420586,,,13:35:00,0
2545,AVENUE U,0,,0,-73.98314090000002,,,40.5958855,"(40.5958855, -73.9831409)",SPORT UTILITY / STATION WAGON,0,0,,Unspecified,0,WEST 12 STREET,0,PASSENGER VEHICLE,BROOKLYN,Failure to Yield Right-of-Way,11223.0,,0,11/05/2016,3557931,,,11:11:00,0
2551,LIBERTY AVENUE,0,Lost Consciousness,0,-73.7803454,,,40.7054135,"(40.7054135, -73.7803454)",PASSENGER VEHICLE,0,0,,Lost Consciousness,0,180 STREET,0,PASSENGER VEHICLE,QUEENS,Lost Consciousness,11412.0,PASSENGER VEHICLE,0,04/11/2016,3422889,,,13:35:00,0
2572,EXIT 22A,0,,0,-73.8475522,,,40.7389122,"(40.7389122, -73.8475522)",PASSENGER VEHICLE,0,0,,Lost Consciousness,0,,0,PASSENGER VEHICLE,,Lost Consciousness,,,0,04/11/2016,3428038,,,14:30:00,0
2575,LAWRENCE STREET,0,,0,-73.83331,,,40.7460261,"(40.7460261, -73.83331)",PASSENGER VEHICLE,0,0,,Failure to Yield Right-of-Way,0,58 AVENUE,0,PASSENGER VEHICLE,QUEENS,Failure to Yield Right-of-Way,11355.0,,0,04/11/2016,3426539,,,14:50:00,0
2597,WEST 34 STREET,0,,0,-73.99760340000002,,,40.753928,"(40.753928, -73.9976034)",PASSENGER VEHICLE,0,0,,Lost Consciousness,0,DYER AVENUE,0,PASSENGER VEHICLE,MANHATTAN,Lost Consciousness,10001.0,,0,04/11/2016,3406678,,,15:35:00,0
2610,GRAND AVENUE,0,,0,-73.92153990000001,,,40.716795,"(40.716795, -73.9215399)",PASSENGER VEHICLE,2,0,,Failure to Yield Right-of-Way,0,47 STREET,2,PASSENGER VEHICLE,QUEENS,Failure to Yield Right-of-Way,11378.0,,0,04/11/2016,3423413,,,15:55:00,0
2624,NOSTRAND AVENUE,0,,0,-73.9402012,,,40.591685299999995,"(40.5916853, -73.9402012)",PASSENGER VEHICLE,3,0,,Failure to Yield Right-of-Way,0,AVENUE Y,4,PASSENGER VEHICLE,BROOKLYN,Failure to Yield Right-of-Way,11235.0,,0,04/11/2016,3414967,,,16:20:00,1
2627,EAST 228 STREET,0,,0,-73.8535434,,,40.888093,"(40.888093, -73.8535434)",PASSENGER VEHICLE,0,0,,Failure to Yield Right-of-Way,0,BRONXWOOD AVENUE,0,PASSENGER VEHICLE,BRONX,Failure to Yield Right-of-Way,10466.0,,0,04/11/2016,3413374,,,16:30:00,0
2628,66 STREET,0,,0,-73.9937287,,,40.620293200000006,"(40.6202932, -73.9937287)",PASSENGER VEHICLE,0,0,,Lost Consciousness,0,WALLASTON COURT,0,PASSENGER VEHICLE,BROOKLYN,Lost Consciousness,11204.0,,0,04/11/2016,3415347,,,16:30:00,0
2629,UTOPIA PARKWAY,0,,0,-73.7902931,,,40.7213764,"(40.7213764, -73.7902931)",PASSENGER VEHICLE,0,0,,Failure to Yield Right-of-Way,0,KILDARE ROAD,0,PASSENGER VEHICLE,QUEENS,Failure to Yield Right-of-Way,11432.0,,0,04/11/2016,3425234,,,16:30:00,0
2630,,0,,0,-73.9653051,1330 CONEY ISLAND AVENUE,,40.62540720000001,"(40.6254072, -73.9653051)",PASSENGER VEHICLE,1,0,,Failure to Yield Right-of-Way,0,,1,PASSENGER VEHICLE,BROOKLYN,Failure to Yield Right-of-Way,11230.0,,0,04/11/2016,3416080,,,16:30:00,0
2658,EAST 138 STREET,0,Unspecified,0,-73.91747840000002,,,40.806822499999996,"(40.8068225, -73.9174784)",SPORT UTILITY / STATION WAGON,1,0,,Unspecified,0,SAINT ANNS AVENUE,2,PASSENGER VEHICLE,BRONX,Failure to Yield Right-of-Way,10454.0,PASSENGER VEHICLE,0,11/04/2016,3557358,,,22:11:00,1
2663,LIBERTY AVENUE,0,,0,-73.8277385,,,40.68574279999999,"(40.6857428, -73.8277385)",PASSENGER VEHICLE,0,0,,Unspecified,0,115 STREET,0,SPORT UTILITY / STATION WAGON,QUEENS,Failure to Yield Right-of-Way,11419.0,,0,10/14/2016,3540068,,,12:10:00,0
2665,ROOSEVELT AVENUE,0,,0,-73.8265417,,,40.7604644,"(40.7604644, -73.8265417)",SPORT UTILITY / STATION WAGON,1,0,,Unspecified,0,UNION STREET,1,PASSENGER VEHICLE,QUEENS,Failure to Yield Right-of-Way,11354.0,,0,10/14/2016,3540917,,,14:10:00,0
2676,,0,,0,-73.9456032,207       NORMAN AVENUE,,40.7274064,"(40.7274064, -73.9456032)",PASSENGER VEHICLE,0,0,,Unspecified,0,,0,PASSENGER VEHICLE,BROOKLYN,Failure to Yield Right-of-Way,11222.0,,0,10/14/2016,3540978,,,17:10:00,0
2690,,0,,0,-73.79731109999999,106-43    157 STREET,,40.697257,"(40.697257, -73.7973111)",PASSENGER VEHICLE,0,0,,Unspecified,0,,0,SPORT UTILITY / STATION WAGON,QUEENS,Failure to Yield Right-of-Way,11433.0,,0,11/03/2016,3556702,,,10:11:00,0
2701,MADISON STREET,0,,0,-73.99374159999998,,,40.7123613,"(40.7123613, -73.9937416)",SPORT UTILITY / STATION WAGON,0,0,,Unspecified,0,MECHANICS ALLEY,0,SPORT UTILITY / STATION WAGON,MANHATTAN,Failure to Yield Right-of-Way,10002.0,,0,11/03/2016,3559859,,,17:11:00,0
2731,,0,,0,-73.9359446,297 MESEROLE STREET,,40.70878370000001,"(40.7087837, -73.9359446)",PASSENGER VEHICLE,0,0,,Failure to Yield Right-of-Way,0,,0,PASSENGER VEHICLE,BROOKLYN,Failure to Yield Right-of-Way,11206.0,,0,04/11/2016,3421496,,,17:30:00,0
2732,BROADWAY,0,,0,-73.9140901,,,40.8711945,"(40.8711945, -73.9140901)",PASSENGER VEHICLE,0,0,,Lost Consciousness,0,WEST 218 STREET,0,PASSENGER VEHICLE,MANHATTAN,Lost Consciousness,10034.0,,0,04/11/2016,3410822,,,17:30:00,0
2741,EAST FORDHAM ROAD,0,,0,-73.88079259999998,,,40.857128499999995,"(40.8571285, -73.8807926)",PASSENGER VEHICLE,0,0,,Lost Consciousness,0,SOUTHERN BOULEVARD,0,PASSENGER VEHICLE,BRONX,Lost Consciousness,10458.0,,0,04/11/2016,3414359,,,17:45:00,0
2747,ELDER AVENUE,0,,0,-73.8257652,,,40.75096920000001,"(40.7509692, -73.8257652)",PASSENGER VEHICLE,0,0,,Failure to Yield Right-of-Way,0,MAIN STREET,0,PASSENGER VEHICLE,QUEENS,Failure to Yield Right-of-Way,11355.0,,0,04/11/2016,3426536,,,18:00:00,0
2776,,0,,0,-73.80978950000002,138-40    101 AVENUE,,40.6945472,"(40.6945472, -73.8097895)",SPORT UTILITY / STATION WAGON,0,0,,Unspecified,0,,0,PASSENGER VEHICLE,QUEENS,Failure to Yield Right-of-Way,11435.0,,0,11/01/2016,3552279,,,17:11:00,0
2789,161 STREET,0,,0,-73.8058195,,,40.7538385,"(40.7538385, -73.8058195)",PASSENGER VEHICLE,0,0,,Failure to Yield Right-of-Way,0,46 AVENUE,0,PASSENGER VEHICLE,QUEENS,Failure to Yield Right-of-Way,11358.0,,0,04/11/2016,3426537,,,18:35:00,0
2795,3 AVENUE,0,,0,-73.9899011,,,40.7295515,"(40.7295515, -73.9899011)",PASSENGER VEHICLE,0,0,,Lost Consciousness,0,ASTOR PLACE,0,PASSENGER VEHICLE,MANHATTAN,Lost Consciousness,10003.0,,0,04/11/2016,3406394,,,19:00:00,0
2859,,0,Failure to Yield Right-of-Way,0,-73.9127289,1165 HANCOCK STREET,,40.6906667,"(40.6906667, -73.9127289)",PASSENGER VEHICLE,0,0,,Failure to Yield Right-of-Way,0,,0,PASSENGER VEHICLE,BROOKLYN,Failure to Yield Right-of-Way,11221.0,PASSENGER VEHICLE,0,04/11/2016,3420593,,,20:40:00,0
2872,20 AVENUE,0,,0,-73.89593459999998,,,40.772410799999996,"(40.7724108, -73.8959346)",SPORT UTILITY / STATION WAGON,0,0,,Unspecified,0,49 STREET,0,PASSENGER VEHICLE,QUEENS,Failure to Yield Right-of-Way,11105.0,,0,10/12/2016,3538720,,,14:10:00,0
2897,,0,,0,-73.99155400000002,570 8 AVENUE,,40.75479779999999,"(40.7547978, -73.991554)",PASSENGER VEHICLE,0,0,,Lost Consciousness,0,,0,PASSENGER VEHICLE,MANHATTAN,Lost Consciousness,10018.0,,0,04/11/2016,3407414,,,22:20:00,0
2907,WEST 39 STREET,0,,0,-73.9952607,,,40.7570597,"(40.7570597, -73.9952607)",PASSENGER VEHICLE,0,0,,Lost Consciousness,0,DYER AVENUE,0,PASSENGER VEHICLE,MANHATTAN,Lost Consciousness,10018.0,,0,04/11/2016,3406680,,,23:25:00,0
2915,WYTHE AVENUE,0,,0,-73.9556788,,,40.7239441,"(40.7239441, -73.9556788)",LARGE COM VEH(6 OR MORE TIRES),0,0,,Lost Consciousness,0,NORTH 15 STREET,0,PASSENGER VEHICLE,BROOKLYN,Lost Consciousness,11222.0,,0,04/11/2016,3421810,,,03:50:00,0
2936,,0,,0,-73.9554497,1222 FLATBUSH AVENUE,,40.640302500000004,"(40.6403025, -73.9554497)",PASSENGER VEHICLE,0,0,,,0,,1,,BROOKLYN,Failure to Yield Right-of-Way,11226.0,,0,04/11/2016,3417468,,,05:55:00,1
2953,UNION AVENUE,0,,0,-73.95146559999998,,,40.7131061,"(40.7131061, -73.9514656)",PASSENGER VEHICLE,0,0,,Unspecified,0,DEVOE STREET,0,,BROOKLYN,Failure to Yield Right-of-Way,11211.0,,0,10/26/2016,3549053,,,15:10:00,0
2965,MC DONALD AVENUE,0,,0,-73.9733068,,,40.596520399999996,"(40.5965204, -73.9733068)",PASSENGER VEHICLE,1,0,,Unspecified,0,VILLAGE ROAD NORTH,1,PASSENGER VEHICLE,BROOKLYN,Failure to Yield Right-of-Way,11223.0,,0,10/26/2016,3548773,,,16:10:00,0
2968,EAST 63 STREET,0,,0,-73.96251509999998,,,40.7631141,"(40.7631141, -73.9625151)",PASSENGER VEHICLE,0,0,,Lost Consciousness,0,2 AVENUE,0,PASSENGER VEHICLE,MANHATTAN,Lost Consciousness,10065.0,,0,04/11/2016,3408847,,,06:30:00,0
2979,,0,,0,-73.832466,133-50 ROOSEVELT AVENUE,,40.7587523,"(40.7587523, -73.832466)",PASSENGER VEHICLE,0,0,,Failure to Yield Right-of-Way,0,,0,PASSENGER VEHICLE,QUEENS,Failure to Yield Right-of-Way,11354.0,,0,04/11/2016,3426541,,,07:00:00,0
2987,METROPOLITAN AVENUE,0,,0,-73.9420676,,,40.714729399999996,"(40.7147294, -73.9420676)",PASSENGER VEHICLE,1,0,,Unspecified,0,BUSHWICK AVENUE,1,,BROOKLYN,Failure to Yield Right-of-Way,11211.0,,0,10/25/2016,3549069,,,14:10:00,0
2997,,0,,0,-73.9589765,2111 ALBEMARLE ROAD,,40.6474183,"(40.6474183, -73.9589765)",,0,0,,Lost Consciousness,0,,0,,BROOKLYN,Lost Consciousness,11226.0,,0,04/11/2016,3417470,,,07:45:00,0
3005,FOUNTAIN AVENUE,0,,0,-73.8728217,,,40.6680235,"(40.6680235, -73.8728217)",PASSENGER VEHICLE,0,0,,Lost Consciousness,0,HEGEMAN AVENUE,0,,BROOKLYN,Lost Consciousness,11208.0,,0,04/11/2016,3419004,,,07:55:00,0
3012,RIVERDALE AVENUE,0,,0,-73.8982903,,,40.6625346,"(40.6625346, -73.8982903)",PASSENGER VEHICLE,0,0,,Failure to Yield Right-of-Way,0,HINSDALE STREET,0,PASSENGER VEHICLE,BROOKLYN,Failure to Yield Right-of-Way,11207.0,,0,04/11/2016,3418992,,,08:00:00,0
3015,166 STREET,0,,0,-73.7974327,,,40.7806814,"(40.7806814, -73.7974327)",PASSENGER VEHICLE,0,0,,Failure to Yield Right-of-Way,0,19 AVENUE,0,PASSENGER VEHICLE,QUEENS,Failure to Yield Right-of-Way,11357.0,,0,04/11/2016,3426524,,,08:00:00,0
3020,UNION STREET,0,,0,-73.8265658,,,40.770641999999995,"(40.770642, -73.8265658)",PASSENGER VEHICLE,0,0,,Failure to Yield Right-of-Way,0,31 ROAD,0,PASSENGER VEHICLE,QUEENS,Failure to Yield Right-of-Way,11354.0,,0,04/11/2016,3426543,,,08:10:00,0
3028,201 STREET,0,,0,-73.793266,,,40.7864297,"(40.7864297, -73.793266)",PASSENGER VEHICLE,0,0,,Failure to Yield Right-of-Way,0,CROSS ISLAND PARKWAY,0,PASSENGER VEHICLE,QUEENS,Failure to Yield Right-of-Way,11360.0,,0,04/11/2016,3426525,,,08:30:00,0
3049,WEST 57 STREET,0,,0,-73.97719599999998,,,40.764322899999996,"(40.7643229, -73.977196)",PASSENGER VEHICLE,0,0,,Failure to Yield Right-of-Way,0,AVENUE OF THE AMERICAS,0,PASSENGER VEHICLE,MANHATTAN,Failure to Yield Right-of-Way,10019.0,,0,04/11/2016,3408345,,,08:45:00,0
3051,EAST 68 STREET,0,,0,-73.95561590000001,,,40.7642891,"(40.7642891, -73.9556159)",PASSENGER VEHICLE,0,0,,Lost Consciousness,0,YORK AVENUE,0,PASSENGER VEHICLE,MANHATTAN,Lost Consciousness,10065.0,,0,04/11/2016,3408852,,,08:47:00,0
3111,LINDEN BOULEVARD,0,Failure to Yield Right-of-Way,0,-73.81344150000002,,,40.6807552,"(40.6807552, -73.8134415)",PASSENGER VEHICLE,0,0,,Failure to Yield Right-of-Way,0,127 STREET,0,PASSENGER VEHICLE,QUEENS,Failure to Yield Right-of-Way,11420.0,PASSENGER VEHICLE,0,04/11/2016,3424715,,,09:20:00,0
3116,ROCKAWAY BOULEVARD,0,,0,-73.7738282,,,40.659650899999995,"(40.6596509, -73.7738282)",PASSENGER VEHICLE,1,0,,Failure to Yield Right-of-Way,0,FARMERS BOULEVARD,1,PASSENGER VEHICLE,QUEENS,Failure to Yield Right-of-Way,11434.0,,0,04/11/2016,3424085,,,09:30:00,0
3119,QUENTIN ROAD,0,,0,-73.96096,,,40.6079544,"(40.6079544, -73.96096)",PASSENGER VEHICLE,0,0,,Failure to Yield Right-of-Way,0,EAST 12 STREET,0,PASSENGER VEHICLE,BROOKLYN,Failure to Yield Right-of-Way,11229.0,,0,04/11/2016,3414972,,,09:40:00,0
3127,TURNBULL AVENUE,0,,0,-73.8491933,,,40.82401770000001,"(40.8240177, -73.8491933)",PASSENGER VEHICLE,0,0,,,0,CASTLE HILL AVENUE,1,,BRONX,Failure to Yield Right-of-Way,10473.0,,0,04/10/2016,3411990,,,00:00:00,1
3135,227 STREET,0,,0,-73.7304503,,,40.701646000000004,"(40.701646, -73.7304503)",PASSENGER VEHICLE,1,0,,Failure to Yield Right-of-Way,0,114 AVENUE,1,PASSENGER VEHICLE,QUEENS,Failure to Yield Right-of-Way,11411.0,,0,04/10/2016,3424081,,,00:40:00,0
3162,,0,,0,-73.80962029999998,152-68    12 AVENUE,,40.791689399999996,"(40.7916894, -73.8096203)",SPORT UTILITY / STATION WAGON,0,0,,Unspecified,0,,0,SPORT UTILITY / STATION WAGON,QUEENS,Failure to Yield Right-of-Way,11357.0,,0,10/22/2016,3544964,,,12:10:00,0
3200,WOOSTER STREET,0,,1,-74.0039287,,,40.7208537,"(40.7208537, -74.0039287)",PASSENGER VEHICLE,0,0,,Failure to Yield Right-of-Way,0,CANAL STREET,1,BICYCLE,MANHATTAN,Failure to Yield Right-of-Way,10013.0,,0,04/10/2016,3405442,,,12:00:00,0
3201,135 AVENUE,0,,0,-73.73297240000002,,,40.671662299999994,"(40.6716623, -73.7329724)",PASSENGER VEHICLE,1,0,,Failure to Yield Right-of-Way,0,242 STREET,1,PASSENGER VEHICLE,QUEENS,Failure to Yield Right-of-Way,11422.0,,0,04/10/2016,3424070,,,12:35:00,0
3218,,0,,0,-73.8752958,1605 WESTCHESTER AVENUE,,40.829305,"(40.829305, -73.8752958)",PASSENGER VEHICLE,0,0,,Lost Consciousness,0,,0,VAN,BRONX,Lost Consciousness,10472.0,,0,04/10/2016,3411984,,,13:26:00,0
3258,EAST 50 STREET,0,,0,-73.975592,,,40.75785870000001,"(40.7578587, -73.975592)",PASSENGER VEHICLE,0,0,,Lost Consciousness,0,MADISON AVENUE,0,,MANHATTAN,Lost Consciousness,10022.0,,0,04/10/2016,3408322,,,14:50:00,0
3260,61 STREET,0,,0,-74.0145672,,,40.6375709,"(40.6375709, -74.0145672)",PASSENGER VEHICLE,0,0,,Failure to Yield Right-of-Way,0,6 AVENUE,0,PASSENGER VEHICLE,BROOKLYN,Failure to Yield Right-of-Way,11220.0,,0,04/10/2016,3418117,,,14:59:00,0
3267,BROADWAY,0,Failure to Yield Right-of-Way,0,-73.968541,,PASSENGER VEHICLE,40.7991021,"(40.7991021, -73.968541)",PASSENGER VEHICLE,0,0,Failure to Yield Right-of-Way,Failure to Yield Right-of-Way,0,WEST 103 STREET,2,PASSENGER VEHICLE,MANHATTAN,Failure to Yield Right-of-Way,10025.0,PASSENGER VEHICLE,0,04/10/2016,3409631,,,15:14:00,2
3292,RICHMOND ROAD,0,,0,-74.1211198,,,40.5753082,"(40.5753082, -74.1211198)",PASSENGER VEHICLE,0,0,,Failure to Yield Right-of-Way,0,ODIN STREET,0,PASSENGER VEHICLE,STATEN ISLAND,Failure to Yield Right-of-Way,10306.0,,0,04/10/2016,3430652,,,15:45:00,0
3295,PITKIN AVENUE,0,,0,-73.8719136,,,40.6754032,"(40.6754032, -73.8719136)",PASSENGER VEHICLE,0,0,,Failure to Yield Right-of-Way,0,EUCLID AVENUE,0,PASSENGER VEHICLE,BROOKLYN,Failure to Yield Right-of-Way,11208.0,,0,04/10/2016,3418986,,,15:50:00,0
3307,3 AVENUE,0,,0,-73.99656850000002,,,40.6650745,"(40.6650745, -73.9965685)",PASSENGER VEHICLE,0,0,,Failure to Yield Right-of-Way,0,19 STREET,0,PASSENGER VEHICLE,BROOKLYN,Failure to Yield Right-of-Way,11232.0,,0,04/10/2016,3418125,,,16:30:00,0
3322,CEDAR AVENUE,0,,0,-74.06544620000003,,,40.5970126,"(40.5970126, -74.0654462)",PASSENGER VEHICLE,0,0,,Unspecified,0,RAILROAD AVENUE,0,PASSENGER VEHICLE,STATEN ISLAND,Failure to Yield Right-of-Way,10305.0,,0,10/21/2016,3544707,,,18:10:00,0
3329,114 STREET,0,,0,-73.85226209999998,,,40.7518488,"(40.7518488, -73.8522621)",PASSENGER VEHICLE,0,0,,Unspecified,0,41 AVENUE,0,,QUEENS,Failure to Yield Right-of-Way,11368.0,,0,10/07/2016,3535653,,,12:10:00,0
3363,,0,,0,-73.8465743,25-67 COLLEGE POINT BOULEVARD,,40.7751827,"(40.7751827, -73.8465743)",PASSENGER VEHICLE,0,0,,Failure to Yield Right-of-Way,0,,0,PASSENGER VEHICLE,QUEENS,Failure to Yield Right-of-Way,11354.0,,0,04/10/2016,3426515,,,17:00:00,0
3375,GRAHAM AVENUE,0,,0,-73.9422665,,,40.701636900000004,"(40.7016369, -73.9422665)",MOTORCYCLE,0,0,,,0,DEBEVOISE STREET,1,,BROOKLYN,Failure to Yield Right-of-Way,11206.0,,0,04/10/2016,3421480,,,17:00:00,1
3388,MAJOR DEEGAN EXPRESSWAY,0,,0,-73.9312375,,,40.8136659,"(40.8136659, -73.9312375)",PASSENGER VEHICLE,0,0,,Failure to Yield Right-of-Way,0,EAST 138 STREET,0,PASSENGER VEHICLE,BRONX,Failure to Yield Right-of-Way,10451.0,,0,04/10/2016,3411122,,,17:09:00,0
3394,7 AVENUE,0,,0,-73.9553035,,,40.7994408,"(40.7994408, -73.9553035)",PASSENGER VEHICLE,0,0,,Failure to Yield Right-of-Way,0,WEST 110 STREET,0,PASSENGER VEHICLE,MANHATTAN,Failure to Yield Right-of-Way,10026.0,,0,04/10/2016,3410171,,,17:20:00,0
3396,MAC DOUGAL STREET,0,,0,-74.0001227,,,40.7304302,"(40.7304302, -74.0001227)",PASSENGER VEHICLE,0,0,,Lost Consciousness,0,WEST 3 STREET,0,PASSENGER VEHICLE,MANHATTAN,Lost Consciousness,10012.0,,0,04/10/2016,3406007,,,17:30:00,0
3413,WEST 37 STREET,0,,0,-73.99207740000001,,,40.7540925,"(40.7540925, -73.9920774)",PASSENGER VEHICLE,0,0,,Lost Consciousness,0,8 AVENUE,0,PASSENGER VEHICLE,MANHATTAN,Lost Consciousness,10018.0,,0,04/10/2016,3407402,,,18:30:00,0
3441,KINGS HIGHWAY,0,,0,-73.92045829999998,,,40.65883839999999,"(40.6588384, -73.9204583)",SPORT UTILITY / STATION WAGON,0,0,,Unspecified,0,EAST 95 STREET,0,SPORT UTILITY / STATION WAGON,BROOKLYN,Failure to Yield Right-of-Way,11212.0,,0,10/19/2016,3543572,,,16:10:00,0
3458,WEST 131 STREET,0,,0,-73.95408909999998,,,40.8163616,"(40.8163616, -73.9540891)",PASSENGER VEHICLE,0,0,,Unspecified,0,AMSTERDAM AVENUE,0,PASSENGER VEHICLE,MANHATTAN,Lost Consciousness,10027.0,,0,10/19/2016,3547423,,,17:10:00,0
3477,35 AVENUE,0,,0,-73.8183565,,,40.76646829999999,"(40.7664683, -73.8183565)",PASSENGER VEHICLE,0,0,,Lost Consciousness,0,148 STREET,0,PASSENGER VEHICLE,QUEENS,Lost Consciousness,11354.0,,0,04/10/2016,3426520,,,19:15:00,0
3479,KENMARE STREET,0,,0,-73.9940403,,,40.7203211,"(40.7203211, -73.9940403)",SMALL COM VEH(4 TIRES),0,0,,Failure to Yield Right-of-Way,0,BOWERY,0,PASSENGER VEHICLE,MANHATTAN,Failure to Yield Right-of-Way,10012.0,,0,04/10/2016,3405776,,,19:20:00,0
3481,,0,,1,-73.8188876,46-08 KISSENA BOULEVARD,,40.75038770000001,"(40.7503877, -73.8188876)",BICYCLE,0,0,,Lost Consciousness,0,,1,PASSENGER VEHICLE,QUEENS,Lost Consciousness,11355.0,,0,04/10/2016,3426517,,,19:48:00,0
3496,179 STREET,0,,0,-73.7844631,,,40.7124946,"(40.7124946, -73.7844631)",PASSENGER VEHICLE,0,0,,Unspecified,0,HILLSIDE AVENUE,0,PASSENGER VEHICLE,QUEENS,Failure to Yield Right-of-Way,11432.0,,0,10/18/2016,3542734,,,14:10:00,0
3525,LINDEN STREET,0,,1,-73.9156161,,,40.6972536,"(40.6972536, -73.9156161)",PASSENGER VEHICLE,0,0,,Failure to Yield Right-of-Way,0,KNICKERBOCKER AVENUE,1,BICYCLE,BROOKLYN,Failure to Yield Right-of-Way,11221.0,,0,04/10/2016,3420580,,,01:55:00,0
3526,,0,,0,-73.946442,507 GRAHAM AVENUE,,40.720690399999995,"(40.7206904, -73.946442)",PASSENGER VEHICLE,0,0,,Lost Consciousness,0,,0,OTHER,BROOKLYN,Lost Consciousness,11222.0,,0,04/10/2016,3421816,,,20:00:00,0
3535,DELANCEY STREET,0,,0,-73.986584,,,40.7180039,"(40.7180039, -73.986584)",SPORT UTILITY / STATION WAGON,0,0,,Passing or Lane Usage Improper,0,SUFFOLK STREET,0,PASSENGER VEHICLE,MANHATTAN,Failure to Yield Right-of-Way,10002.0,,0,10/16/2016,3540652,,,00:10:00,0
3536,AVENUE J,0,,0,-73.9604671,,,40.6252821,"(40.6252821, -73.9604671)",PASSENGER VEHICLE,0,0,,,0,EAST 16 STREET,1,,BROOKLYN,Failure to Yield Right-of-Way,11230.0,,0,10/16/2016,3541802,,,11:10:00,1
3575,SPRINGFIELD BOULEVARD,0,,0,-73.7548493,,,40.677928,"(40.677928, -73.7548493)",PASSENGER VEHICLE,2,0,,Failure to Yield Right-of-Way,0,136 AVENUE,2,PASSENGER VEHICLE,QUEENS,Failure to Yield Right-of-Way,11413.0,,0,04/10/2016,3424078,,,21:20:00,0
3580,,0,,0,-74.00021650000002,477       BROADWAY,,40.7213753,"(40.7213753, -74.0002165)",PASSENGER VEHICLE,0,0,,Following Too Closely,0,,0,PICK-UP TRUCK,MANHATTAN,Failure to Yield Right-of-Way,10013.0,,0,10/14/2016,3540596,,,19:10:00,0
3695,EASTERN PARKWAY,0,,0,-73.9256052,,,40.6685062,"(40.6685062, -73.9256052)",PASSENGER VEHICLE,2,0,,Failure to Yield Right-of-Way,0,BUFFALO AVENUE,2,PASSENGER VEHICLE,BROOKLYN,Failure to Yield Right-of-Way,11213.0,,0,04/10/2016,3419591,,,06:00:00,0
3699,30TH RD,0,,0,-73.9284713,,,40.7690596,"(40.7690596, -73.9284713)",PASSENGER VEHICLE,0,0,,Failure to Yield Right-of-Way,0,21 STREET,0,PASSENGER VEHICLE,QUEENS,Failure to Yield Right-of-Way,11102.0,,0,04/10/2016,3429002,,,06:15:00,0
3700,HEGEMAN AVENUE,0,,0,-73.88919890000003,,,40.6609891,"(40.6609891, -73.8891989)",PASSENGER VEHICLE,1,0,,Failure to Yield Right-of-Way,0,WYONA STREET,1,PASSENGER VEHICLE,BROOKLYN,Failure to Yield Right-of-Way,11207.0,,0,04/10/2016,3418984,,,06:15:00,0
3728,28 AVENUE,0,,0,-73.77113220000003,,,40.778340299999996,"(40.7783403, -73.7711322)",PASSENGER VEHICLE,3,0,,Failure to Yield Right-of-Way,0,216 STREET,3,PASSENGER VEHICLE,QUEENS,Failure to Yield Right-of-Way,11360.0,,0,04/10/2016,3427551,,,08:50:00,0
3736,149 STREET,0,Failure to Yield Right-of-Way,0,-73.8143276,,PASSENGER VEHICLE,40.7587409,"(40.7587409, -73.8143276)",PASSENGER VEHICLE,0,0,Failure to Yield Right-of-Way,Failure to Yield Right-of-Way,0,BEECH AVENUE,0,PASSENGER VEHICLE,QUEENS,Failure to Yield Right-of-Way,11355.0,PASSENGER VEHICLE,0,04/10/2016,3426506,,,09:30:00,0
3745,CHRISTOPHER STREET,0,,0,-74.00640820000002,,,40.733053999999996,"(40.733054, -74.0064082)",PASSENGER VEHICLE,0,0,,Lost Consciousness,0,HUDSON STREET,0,PASSENGER VEHICLE,MANHATTAN,Lost Consciousness,10014.0,,0,04/09/2016,3405999,,,00:15:00,0
3779,,0,,0,-73.8338181,83-96 118 STREET,,40.7043641,"(40.7043641, -73.8338181)",PASSENGER VEHICLE,0,0,,Lost Consciousness,0,,0,PASSENGER VEHICLE,QUEENS,Lost Consciousness,11415.0,,0,04/09/2016,3422419,,,10:30:00,0
3792,,0,,0,-73.9560666,5-47 50 AVENUE,,40.7431163,"(40.7431163, -73.9560666)",PASSENGER VEHICLE,0,0,,Lost Consciousness,0,,0,PASSENGER VEHICLE,QUEENS,Lost Consciousness,11101.0,,0,04/09/2016,3425804,,,11:30:00,0
3802,VERNON BOULEVARD,0,,0,-73.9413896,,,40.7637338,"(40.7637338, -73.9413896)",PASSENGER VEHICLE,0,0,,Failure to Yield Right-of-Way,0,35 AVENUE,0,PASSENGER VEHICLE,QUEENS,Failure to Yield Right-of-Way,11106.0,,0,04/09/2016,3429003,,,12:30:00,0
3804,WEST 23 STREET,0,,0,-73.99564409999998,,,40.744099,"(40.744099, -73.9956441)",PASSENGER VEHICLE,0,0,,,0,7 AVENUE,1,,MANHATTAN,Failure to Yield Right-of-Way,10011.0,,0,04/09/2016,3406665,,,12:51:00,1
3807,MAIN STREET,0,,0,-73.8319573,,,40.762953700000004,"(40.7629537, -73.8319573)",PASSENGER VEHICLE,0,0,,Failure to Yield Right-of-Way,0,NORTHERN BOULEVARD,0,PASSENGER VEHICLE,QUEENS,Failure to Yield Right-of-Way,11354.0,,0,04/09/2016,3426494,,,13:00:00,0
3823,WOOD AVENUE,0,,0,-73.8641141,,,40.835437799999994,"(40.8354378, -73.8641141)",PASSENGER VEHICLE,3,0,,Failure to Yield Right-of-Way,0,LELAND AVENUE,3,PASSENGER VEHICLE,BRONX,Failure to Yield Right-of-Way,10460.0,,0,04/09/2016,3411980,,,13:58:00,0
3824,,0,,0,-73.9221007,29 LINDEN STREET,,40.6906625,"(40.6906625, -73.9221007)",PASSENGER VEHICLE,0,0,,Failure to Yield Right-of-Way,0,,0,PASSENGER VEHICLE,BROOKLYN,Failure to Yield Right-of-Way,11221.0,,0,04/09/2016,3420577,,,14:00:00,0
3870,,0,,0,-73.9894457,288 WEST 42 STREET,,40.7570785,"(40.7570785, -73.9894457)",PASSENGER VEHICLE,0,0,,Lost Consciousness,0,,0,PASSENGER VEHICLE,MANHATTAN,Lost Consciousness,10036.0,,0,04/09/2016,3407385,,,14:17:00,0
3878,MAIN STREET,0,,0,-73.8278248,,,40.7542523,"(40.7542523, -73.8278248)",PASSENGER VEHICLE,0,0,,Failure to Yield Right-of-Way,0,FRANKLIN AVENUE,0,,QUEENS,Failure to Yield Right-of-Way,11355.0,,0,04/09/2016,3426495,,,14:30:00,0
3884,GREENWICH STREET,0,,0,-74.0071625,,,40.7342946,"(40.7342946, -74.0071625)",PASSENGER VEHICLE,0,0,,Failure to Yield Right-of-Way,0,CHARLES STREET,0,PASSENGER VEHICLE,MANHATTAN,Failure to Yield Right-of-Way,10014.0,,0,04/09/2016,3406009,,,14:44:00,0
3885,AMSTERDAM AVENUE,0,,1,-73.9666629,,,40.7991318,"(40.7991318, -73.9666629)",PASSENGER VEHICLE,0,0,,Failure to Yield Right-of-Way,0,WEST 104 STREET,1,BICYCLE,MANHATTAN,Failure to Yield Right-of-Way,10025.0,,0,04/09/2016,3409627,,,14:45:00,0
3886,NORTHERN BOULEVARD,0,,0,-73.81516500000002,,,40.765266499999996,"(40.7652665, -73.815165)",PASSENGER VEHICLE,0,0,,Lost Consciousness,0,150 STREET,0,PASSENGER VEHICLE,QUEENS,Lost Consciousness,11354.0,,0,04/09/2016,3426496,,,15:00:00,0
3889,WASHINGTON SQUARE NORTH,0,,0,-73.9986108,,,40.732214299999995,"(40.7322143, -73.9986108)",OTHER,0,0,,Lost Consciousness,0,MAC DOUGAL STREET,0,,MANHATTAN,Lost Consciousness,10011.0,,0,04/09/2016,3433393,,,15:06:00,0
3901,DELAWARE AVENUE,0,,0,-73.8183241,,,40.7558708,"(40.7558708, -73.8183241)",PASSENGER VEHICLE,0,0,,Failure to Yield Right-of-Way,0,BURLING STREET,0,SPORT UTILITY / STATION WAGON,QUEENS,Failure to Yield Right-of-Way,11355.0,,0,10/25/2016,3547154,,,16:10:00,0
3910,LINDEN BOULEVARD,0,Failure to Yield Right-of-Way,0,-73.7807822,,,40.691029,"(40.691029, -73.7807822)",PASSENGER VEHICLE,1,0,,Failure to Yield Right-of-Way,0,169 STREET,1,PASSENGER VEHICLE,QUEENS,Failure to Yield Right-of-Way,11434.0,PASSENGER VEHICLE,0,04/09/2016,3428460,,,15:55:00,0
3915,25 AVENUE,0,,0,-73.8735762,,,40.7644369,"(40.7644369, -73.8735762)",PASSENGER VEHICLE,0,0,,Failure to Yield Right-of-Way,0,96 STREET,0,PASSENGER VEHICLE,QUEENS,Failure to Yield Right-of-Way,11369.0,,0,04/09/2016,3429450,,,16:14:00,0
3939,NORTHERN BOULEVARD,0,,0,-73.85560840000002,,,40.758306,"(40.758306, -73.8556084)",PASSENGER VEHICLE,1,0,,Unspecified,0,114 STREET,1,SPORT UTILITY / STATION WAGON,QUEENS,Failure to Yield Right-of-Way,11368.0,,0,10/08/2016,3536067,,,16:10:00,0
3946,,0,,0,-73.9829439,45        EAST 33 STREET,,40.74689470000001,"(40.7468947, -73.9829439)",SPORT UTILITY / STATION WAGON,0,0,,Unspecified,0,,0,,MANHATTAN,Failure to Yield Right-of-Way,10016.0,,0,10/25/2016,3547704,,,17:10:00,0
3965,CONEY ISLAND AVENUE,0,,0,-73.9693973,,,40.64138300000001,"(40.641383, -73.9693973)",PASSENGER VEHICLE,1,0,,Failure to Yield Right-of-Way,0,AVENUE C,1,PASSENGER VEHICLE,BROOKLYN,Failure to Yield Right-of-Way,11218.0,,0,04/09/2016,3416063,,,16:31:00,0
3967,NORTHERN BOULEVARD,0,,0,-73.77468590000002,,,40.75892,"(40.75892, -73.7746859)",PASSENGER VEHICLE,0,0,,Lost Consciousness,0,209 STREET,0,PASSENGER VEHICLE,QUEENS,Lost Consciousness,11361.0,,0,04/09/2016,3427545,,,16:38:00,0
3970,150 STREET,0,,0,-73.8155843,,,40.768961600000004,"(40.7689616, -73.8155843)",PASSENGER VEHICLE,0,0,,Failure to Yield Right-of-Way,0,33 AVENUE,0,PASSENGER VEHICLE,QUEENS,Failure to Yield Right-of-Way,11354.0,,0,04/09/2016,3426498,,,16:45:00,0
3972,WEBSTER AVENUE,0,,0,-73.874758,,,40.8731621,"(40.8731621, -73.874758)",PASSENGER VEHICLE,0,0,,Lost Consciousness,0,PARKSIDE PLACE,0,PASSENGER VEHICLE,BRONX,Lost Consciousness,10467.0,,0,04/09/2016,3414341,,,16:50:00,0
4066,,0,,1,-73.96817920000002,570 VANDERBILT AVENUE,,40.67959000000001,"(40.67959, -73.9681792)",BICYCLE,0,0,,Failure to Yield Right-of-Way,0,,1,PASSENGER VEHICLE,BROOKLYN,Failure to Yield Right-of-Way,11238.0,,0,04/09/2016,3419852,,,20:06:00,0
4069,35 AVENUE,0,,0,-73.7783377,,,40.7679545,"(40.7679545, -73.7783377)",PASSENGER VEHICLE,0,0,,Failure to Yield Right-of-Way,0,KENNEDY STREET,0,PASSENGER VEHICLE,QUEENS,Failure to Yield Right-of-Way,11361.0,,0,04/09/2016,3427548,,,20:15:00,0
4070,CROTONA AVENUE,0,Failure to Yield Right-of-Way,0,-73.8836288,,,40.8539091,"(40.8539091, -73.8836288)",PASSENGER VEHICLE,1,0,,Failure to Yield Right-of-Way,0,EAST 187 STREET,1,PASSENGER VEHICLE,BRONX,Failure to Yield Right-of-Way,10458.0,PASSENGER VEHICLE,0,04/09/2016,3413721,,,20:15:00,0
4095,48 AVENUE,0,,0,-73.92780929999998,,,40.7402777,"(40.7402777, -73.9278093)",PASSENGER VEHICLE,0,0,,Failure to Yield Right-of-Way,0,38 STREET,0,PASSENGER VEHICLE,QUEENS,Failure to Yield Right-of-Way,11101.0,,0,04/09/2016,3425810,,,20:30:00,0
4096,MADISON AVENUE,0,,0,-73.9448468,,,40.799985299999996,"(40.7999853, -73.9448468)",PASSENGER VEHICLE,0,0,,Lost Consciousness,0,EAST 116 STREET,0,PASSENGER VEHICLE,MANHATTAN,Lost Consciousness,10029.0,,0,04/09/2016,3409893,,,21:10:00,0
4106,31 STREET,0,,0,-73.9338317,,,40.751603499999995,"(40.7516035, -73.9338317)",PASSENGER VEHICLE,0,0,,Failure to Yield Right-of-Way,0,40 AVENUE,0,PASSENGER VEHICLE,QUEENS,Failure to Yield Right-of-Way,11101.0,,0,04/09/2016,3429000,,,21:30:00,0
4118,FRANCIS LEWIS BOULEVARD,0,,0,-73.7283872,,,40.6574116,"(40.6574116, -73.7283872)",PASSENGER VEHICLE,0,0,,Failure to Yield Right-of-Way,0,147 AVENUE,0,PASSENGER VEHICLE,QUEENS,Failure to Yield Right-of-Way,11422.0,,0,04/09/2016,3424064,,,22:15:00,0
4149,JAMAICA AVENUE,0,,0,-73.8656225,,,40.6915655,"(40.6915655, -73.8656225)",PASSENGER VEHICLE,1,0,,Lost Consciousness,0,76 STREET,1,PASSENGER VEHICLE,QUEENS,Lost Consciousness,11421.0,,0,04/09/2016,3422420,,,04:20:00,0
4162,35 AVENUE,0,,0,-73.8209025,,,40.7661594,"(40.7661594, -73.8209025)",SPORT UTILITY / STATION WAGON,0,0,,Failure to Yield Right-of-Way,0,146 STREET,0,SPORT UTILITY / STATION WAGON,QUEENS,Failure to Yield Right-of-Way,11354.0,,0,10/30/2016,3550284,,,19:10:00,0
4163,NORTHERN BOULEVARD,0,,0,-73.7967063,,,40.7584175,"(40.7584175, -73.7967063)",PASSENGER VEHICLE,0,0,,Failure to Yield Right-of-Way,0,170 STREET,0,PASSENGER VEHICLE,QUEENS,Failure to Yield Right-of-Way,11358.0,,0,10/30/2016,3550288,,,19:10:00,0
4214,FLATBUSH AVE,0,,0,-73.9003688,,,40.6014908,"(40.6014908, -73.9003688)",PASSENGER VEHICLE,0,0,,Lost Consciousness,0,,0,PASSENGER VEHICLE,,Lost Consciousness,,,0,04/09/2016,3415665,,,09:30:00,0
4219,NORTHERN BOULEVARD,0,,0,-73.8281463,,,40.763941700000004,"(40.7639417, -73.8281463)",PASSENGER VEHICLE,0,0,,,0,UNION STREET,1,,QUEENS,Lost Consciousness,11354.0,,0,04/08/2016,3426466,,,00:57:00,1
4223,150 STREET,0,,0,-73.8072874,,,40.7080611,"(40.7080611, -73.8072874)",SPORT UTILITY / STATION WAGON,0,0,,,0,87 AVENUE,1,,QUEENS,Failure to Yield Right-of-Way,11435.0,,0,10/30/2016,3550706,,,21:10:00,1
4244,HOMECREST AVENUE,0,,0,-73.9569723,,,40.58687570000001,"(40.5868757, -73.9569723)",PASSENGER VEHICLE,1,0,,Failure to Yield Right-of-Way,0,WILLIAMS COURT,1,PASSENGER VEHICLE,BROOKLYN,Failure to Yield Right-of-Way,11235.0,,0,04/08/2016,3414949,,,10:30:00,0
4259,54 STREET,0,,0,-74.0126478,,,40.6428659,"(40.6428659, -74.0126478)",PASSENGER VEHICLE,0,0,,Failure to Yield Right-of-Way,0,5 AVENUE,0,PASSENGER VEHICLE,BROOKLYN,Failure to Yield Right-of-Way,11220.0,,0,04/08/2016,3418105,,,11:00:00,0
4262,,0,,0,-73.957646,101 NORTH 12 STREET,,40.722410499999995,"(40.7224105, -73.957646)",PASSENGER VEHICLE,0,0,,Lost Consciousness,0,,0,,BROOKLYN,Lost Consciousness,11249.0,,0,04/08/2016,3421793,,,11:30:00,0
4276,MELROSE AVENUE,0,,0,-73.9116927,,,40.82775770000001,"(40.8277577, -73.9116927)",PASSENGER VEHICLE,0,0,,Lost Consciousness,0,BROOK AVENUE,0,PASSENGER VEHICLE,BRONX,Lost Consciousness,10456.0,,0,04/08/2016,3411626,,,13:40:00,0
4283,,0,,0,-73.9839113,6817 BAY PARKWAY,,40.6114513,"(40.6114513, -73.9839113)",PASSENGER VEHICLE,0,0,,Failure to Yield Right-of-Way,0,,0,PASSENGER VEHICLE,BROOKLYN,Failure to Yield Right-of-Way,11204.0,,0,04/08/2016,3415317,,,13:50:00,0
4308,BROOKVILLE BOULEVARD,0,,0,-73.72973890000002,,,40.6778443,"(40.6778443, -73.7297389)",PASSENGER VEHICLE,0,0,,Failure to Yield Right-of-Way,0,130 ROAD,0,PASSENGER VEHICLE,QUEENS,Failure to Yield Right-of-Way,11422.0,,0,04/08/2016,3424034,,,14:20:00,0
4312,WEST 28 STREET,0,,0,-73.996196,,,40.7484385,"(40.7484385, -73.996196)",PASSENGER VEHICLE,0,0,,Lost Consciousness,0,8 AVENUE,0,PASSENGER VEHICLE,MANHATTAN,Lost Consciousness,10001.0,,0,04/08/2016,3406660,,,14:25:00,0
4317,LEXINGTON AVENUE,0,,0,-73.98425920000003,,,40.7401675,"(40.7401675, -73.9842592)",OTHER,0,0,,Lost Consciousness,0,EAST 24 STREET,0,OTHER,MANHATTAN,Lost Consciousness,10010.0,,0,04/08/2016,3406997,,,14:38:00,0
4325,34 AVENUE,0,,0,-73.81646529999998,,,40.7676126,"(40.7676126, -73.8164653)",PASSENGER VEHICLE,2,0,,Unspecified,0,149 PLACE,2,PASSENGER VEHICLE,QUEENS,Failure to Yield Right-of-Way,11354.0,,0,10/29/2016,3549699,,,11:10:00,0
4361,FARRINGTON STREET,0,,0,-73.831773,,,40.764454799999996,"(40.7644548, -73.831773)",SPORT UTILITY / STATION WAGON,0,0,,,0,35 AVENUE,1,,QUEENS,Failure to Yield Right-of-Way,11354.0,,0,10/29/2016,3549694,,,13:10:00,1
4375,88 STREET,0,,0,-73.85961379999998,,,40.7040718,"(40.7040718, -73.8596138)",SPORT UTILITY / STATION WAGON,0,0,,Unspecified,0,81 AVENUE,0,PASSENGER VEHICLE,QUEENS,Failure to Yield Right-of-Way,11385.0,,0,10/29/2016,3550882,,,15:10:00,0
4395,WEST 20 STREET,0,,0,-73.9970084,,,40.7422271,"(40.7422271, -73.9970084)",PASSENGER VEHICLE,0,0,,Lost Consciousness,0,7 AVENUE,0,SMALL COM VEH(4 TIRES),MANHATTAN,Lost Consciousness,10011.0,,0,04/08/2016,3406999,,,15:00:00,0
4403,1 AVENUE,0,,0,-73.9666173,,,40.7532425,"(40.7532425, -73.9666173)",TAXI,0,0,,Failure to Yield Right-of-Way,0,EAST 49 STREET,0,PASSENGER VEHICLE,MANHATTAN,Failure to Yield Right-of-Way,10017.0,,0,10/29/2016,3549774,,,16:10:00,0
4419,CALYER STREET,0,,0,-73.9515661,,,40.728696299999996,"(40.7286963, -73.9515661)",PASSENGER VEHICLE,0,0,,Lost Consciousness,0,ECKFORD STREET,0,PASSENGER VEHICLE,BROOKLYN,Lost Consciousness,11222.0,,0,04/08/2016,3421794,,,15:30:00,0
4424,101 AVENUE,0,,0,-73.7305503,,,40.7135009,"(40.7135009, -73.7305503)",PASSENGER VEHICLE,0,0,,Unspecified,0,223 STREET,0,SPORT UTILITY / STATION WAGON,QUEENS,Failure to Yield Right-of-Way,11429.0,,0,10/29/2016,3549714,,,18:10:00,0
4437,2 AVENUE,0,,0,-73.9652931,,,40.759308000000004,"(40.759308, -73.9652931)",SPORT UTILITY / STATION WAGON,0,0,,,0,EAST 57 STREET,2,,MANHATTAN,Failure to Yield Right-of-Way,10022.0,,0,10/29/2016,3549772,,,19:10:00,2
4491,48 AVENUE,0,,0,-73.9361624,,,40.741243299999994,"(40.7412433, -73.9361624)",PASSENGER VEHICLE,1,0,,Failure to Yield Right-of-Way,0,31 STREET,1,PASSENGER VEHICLE,QUEENS,Failure to Yield Right-of-Way,11101.0,,0,04/08/2016,3425788,,,15:30:00,0
4495,,0,,0,-73.9578871,77 MILTON STREET,,40.7291407,"(40.7291407, -73.9578871)",PASSENGER VEHICLE,0,0,,Lost Consciousness,0,,0,,BROOKLYN,Lost Consciousness,11222.0,,0,04/08/2016,3421797,,,15:45:00,0
4496,FOSTER AVENUE,0,,0,-73.96310279999999,,,40.634047100000004,"(40.6340471, -73.9631028)",PASSENGER VEHICLE,0,0,,Failure to Yield Right-of-Way,0,MARLBOROUGH ROAD,0,PASSENGER VEHICLE,BROOKLYN,Failure to Yield Right-of-Way,11230.0,,0,04/08/2016,3417440,,,15:45:00,0
4520,,0,,0,-73.9229069,1647 ST JOHNS PLACE,,40.6701513,"(40.6701513, -73.9229069)",PASSENGER VEHICLE,0,0,,,0,,1,,BROOKLYN,Failure to Yield Right-of-Way,11233.0,,0,04/08/2016,3418417,,,16:05:00,1
4521,GRANT HIGHWAY,0,,0,-73.9228189,,,40.842751799999995,"(40.8427518, -73.9228189)",PASSENGER VEHICLE,0,0,,Lost Consciousness,0,PLIMPTON AVENUE,0,PASSENGER VEHICLE,BRONX,Lost Consciousness,10452.0,,0,04/08/2016,3412333,,,16:10:00,0
4525,CHURCH STREET,0,,0,-74.0043723,,,40.7194676,"(40.7194676, -74.0043723)",PASSENGER VEHICLE,0,0,,Lost Consciousness,0,WALKER STREET,0,PASSENGER VEHICLE,MANHATTAN,Lost Consciousness,10013.0,,0,04/08/2016,3405437,,,16:12:00,0
4527,EAST 163 STREET,0,,0,-73.89490479999998,,,40.820988899999996,"(40.8209889, -73.8949048)",PASSENGER VEHICLE,0,0,,Lost Consciousness,0,TIFFANY STREET,0,PASSENGER VEHICLE,BRONX,Lost Consciousness,10459.0,,0,04/08/2016,3411411,,,16:13:00,0
4540,,0,,0,-73.84539790000002,123-01 ROOSEVELT AVENUE,,40.7547026,"(40.7547026, -73.8453979)",PASSENGER VEHICLE,0,0,,Failure to Yield Right-of-Way,0,,0,PASSENGER VEHICLE,QUEENS,Failure to Yield Right-of-Way,11368.0,,0,04/08/2016,3427107,,,16:45:00,0
4575,SAINT NICHOLAS PLACE,0,,0,-73.94017099999998,,,40.830383399999995,"(40.8303834, -73.940171)",PASSENGER VEHICLE,0,0,,Failure to Yield Right-of-Way,0,WEST 155 STREET,0,PASSENGER VEHICLE,MANHATTAN,Failure to Yield Right-of-Way,10032.0,,0,04/08/2016,3410257,,,17:15:00,0
4587,AVENUE OF THE AMERICAS,0,,0,-73.9827104,,,40.7567703,"(40.7567703, -73.9827104)",PASSENGER VEHICLE,0,0,,Lost Consciousness,0,WEST 45 STREET,0,PASSENGER VEHICLE,MANHATTAN,Lost Consciousness,10036.0,,0,04/08/2016,3407406,,,17:15:00,0
4593,,0,,1,-73.9903218,601 5 AVENUE,,40.6643935,"(40.6643935, -73.9903218)",PASSENGER VEHICLE,0,0,,Failure to Yield Right-of-Way,0,,1,BICYCLE,BROOKLYN,Failure to Yield Right-of-Way,11215.0,,0,04/08/2016,3418098,,,17:42:00,0
4597,WILLETS POINT BOULEVARD,0,,0,-73.8176434,,,40.776397700000004,"(40.7763977, -73.8176434)",PASSENGER VEHICLE,0,0,,,0,149 STREET,1,,QUEENS,Failure to Yield Right-of-Way,11357.0,,0,04/08/2016,3426476,,,17:45:00,1
4617,36 AVENUE,0,,0,-73.7707583,,,40.768450200000004,"(40.7684502, -73.7707583)",PASSENGER VEHICLE,0,0,,Unspecified,0,214 PLACE,0,SPORT UTILITY / STATION WAGON,QUEENS,Failure to Yield Right-of-Way,11361.0,,0,10/27/2016,3550325,,,15:10:00,0
4631,AVENUE U,0,,0,-73.9390407,,,40.600742499999996,"(40.6007425, -73.9390407)",PASSENGER VEHICLE,0,0,,,0,BATCHELDER STREET,0,,BROOKLYN,Failure to Yield Right-of-Way,11229.0,,0,10/27/2016,3550486,,,17:10:00,0
4676,HARRISON AVENUE,0,,1,-73.9149395,,,40.8487956,"(40.8487956, -73.9149395)",PASSENGER VEHICLE,0,0,,Failure to Yield Right-of-Way,0,WEST 176 STREET,1,BICYCLE,BRONX,Failure to Yield Right-of-Way,10453.0,,0,04/08/2016,3412953,,,18:00:00,0
4697,NEWPORT STREET,0,,0,-73.9015806,,,40.6604514,"(40.6604514, -73.9015806)",PASSENGER VEHICLE,0,0,,Unspecified,0,POWELL STREET,0,SPORT UTILITY / STATION WAGON,BROOKLYN,Failure to Yield Right-of-Way,11212.0,,0,10/27/2016,3548238,,,09:10:00,0
4713,BAY RIDGE AVENUE,0,,0,-74.0121408,,,40.6286836,"(40.6286836, -74.0121408)",PASSENGER VEHICLE,0,0,,Lost Consciousness,0,FORT HAMILTON PARKWAY,0,PASSENGER VEHICLE,BROOKLYN,Lost Consciousness,11219.0,,0,04/08/2016,3416828,,,19:00:00,0
4784,81 STREET,0,,0,-73.9886885,,,40.6034261,"(40.6034261, -73.9886885)",PASSENGER VEHICLE,0,0,,Unspecified,0,23 AVENUE,0,SPORT UTILITY / STATION WAGON,BROOKLYN,Failure to Yield Right-of-Way,11214.0,,0,10/26/2016,3548244,,,18:10:00,0
4814,,0,,0,-73.7659,180-31    LINDEN BOULEVARD,,40.692147,"(40.692147, -73.7659)",PASSENGER VEHICLE,0,0,,,0,,1,,QUEENS,Failure to Yield Right-of-Way,11434.0,,0,10/26/2016,3547968,,,06:10:00,1
4832,,0,,0,-73.776025,137-15 160 STREET,,40.670916999999996,"(40.670917, -73.776025)",PASSENGER VEHICLE,0,0,,Lost Consciousness,0,,0,PASSENGER VEHICLE,QUEENS,Lost Consciousness,11434.0,,0,04/08/2016,3428450,,,21:00:00,0
4843,NORTHERN BOULEVARD,0,,0,-73.7940265,,,40.7577348,"(40.7577348, -73.7940265)",SPORT UTILITY / STATION WAGON,0,0,,,0,172 STREET,1,,QUEENS,Failure to Yield Right-of-Way,11358.0,,0,09/30/2016,3530775,,,20:09:00,2
4855,79 STREET,0,,0,-73.8715291,,,40.704706,"(40.704706, -73.8715291)",PASSENGER VEHICLE,0,0,,Failure to Yield Right-of-Way,0,78 AVE,0,PASSENGER VEHICLE,QUEENS,Failure to Yield Right-of-Way,11385.0,,0,04/08/2016,3423392,,,22:00:00,0
4884,10 AVENUE,0,,0,-74.0023315,,,40.7502089,"(40.7502089, -74.0023315)",PASSENGER VEHICLE,0,0,,Lost Consciousness,0,WEST 27 STREET,0,,MANHATTAN,Lost Consciousness,10001.0,,0,04/08/2016,3406670,,,23:15:00,0
4891,,0,,0,-73.98467729999999,214       3 AVENUE,,40.6794727,"(40.6794727, -73.9846773)",SPORT UTILITY / STATION WAGON,0,0,,Unspecified,0,,0,SPORT UTILITY / STATION WAGON,BROOKLYN,Failure to Yield Right-of-Way,11217.0,,0,12/03/2016,3573094,,,00:12:00,0
4923,40 AVENUE,0,,0,-73.9371689,,,40.7530792,"(40.7530792, -73.9371689)",PASSENGER VEHICLE,4,0,,Unspecified,0,27 STREET,2,PASSENGER VEHICLE,QUEENS,Failure to Yield Right-of-Way,11101.0,,0,12/03/2016,3572214,,,00:12:00,0
4935,159 STREET,0,,0,-73.8060955,,,40.765655100000004,"(40.7656551, -73.8060955)",SPORT UTILITY / STATION WAGON,0,0,,Unspecified,0,35 AVENUE,0,SPORT UTILITY / STATION WAGON,QUEENS,Failure to Yield Right-of-Way,11358.0,,0,12/03/2016,3572514,,,10:12:00,0
4954,188 STREET,0,,0,-73.7893193,,,40.746395899999996,"(40.7463959, -73.7893193)",SPORT UTILITY / STATION WAGON,0,0,,Failure to Yield Right-of-Way,0,50 AVENUE,0,SPORT UTILITY / STATION WAGON,QUEENS,Failure to Yield Right-of-Way,11365.0,,0,10/25/2016,3547263,,,08:10:00,0
4956,70 AVENUE,0,,0,-73.8500834,,,40.7160242,"(40.7160242, -73.8500834)",SPORT UTILITY / STATION WAGON,0,0,,Unspecified,0,HARROW STREET,0,PASSENGER VEHICLE,QUEENS,Failure to Yield Right-of-Way,11375.0,,0,10/25/2016,3546854,,,08:10:00,0
5007,,0,,0,-73.9192025,187       IRVING AVENUE,,40.701774,"(40.701774, -73.9192025)",VAN,0,0,,,0,,1,,BROOKLYN,Failure to Yield Right-of-Way,11237.0,,0,12/03/2016,3572126,,,12:12:00,1
5019,MC GUINNESS BOULEVARD,0,,0,-73.9518958,,,40.731861200000004,"(40.7318612, -73.9518958)",SPORT UTILITY / STATION WAGON,0,0,,Unspecified,0,JAVA STREET,0,PASSENGER VEHICLE,BROOKLYN,Failure to Yield Right-of-Way,11222.0,,0,12/03/2016,3572768,,,13:12:00,0
5041,94 STREET,0,Unspecified,0,-73.87484,,,40.76041179999999,"(40.7604118, -73.87484)",SPORT UTILITY / STATION WAGON,2,0,,Unspecified,0,31 AVENUE,2,SPORT UTILITY / STATION WAGON,QUEENS,Failure to Yield Right-of-Way,11369.0,SPORT UTILITY / STATION WAGON,0,12/03/2016,3573954,,,13:12:00,0
5176,PARSONS BOULEVARD,0,,0,-73.81151390000002,,,40.7504554,"(40.7504554, -73.8115139)",SPORT UTILITY / STATION WAGON,0,0,,Unspecified,0,OAK AVENUE,0,SPORT UTILITY / STATION WAGON,QUEENS,Failure to Yield Right-of-Way,11355.0,,0,12/03/2016,3572525,,,17:12:00,0
5184,LIBERTY AVENUE,0,,0,-73.774179,,,40.7050859,"(40.7050859, -73.774179)",SPORT UTILITY / STATION WAGON,0,0,,Unspecified,0,104 AVENUE,0,PASSENGER VEHICLE,QUEENS,Failure to Yield Right-of-Way,11412.0,,0,12/03/2016,3572346,,,17:12:00,0
5191,68 AVENUE,0,,0,-73.8465302,,,40.7269601,"(40.7269601, -73.8465302)",PASSENGER VEHICLE,0,0,,,0,108 STREET,0,PASSENGER VEHICLE,QUEENS,Failure to Yield Right-of-Way,11375.0,,0,10/23/2016,3545938,,,13:10:00,0
5208,STILLWELL AVENUE,0,,0,-73.98594140000002,,,40.6003214,"(40.6003214, -73.9859414)",SPORT UTILITY / STATION WAGON,0,0,,,0,AVENUE S,1,,BROOKLYN,Failure to Yield Right-of-Way,11223.0,,0,12/03/2016,3572929,,,17:12:00,1
5210,WEST 124 STREET,0,,0,-73.94882059999998,,,40.8082954,"(40.8082954, -73.9488206)",SPORT UTILITY / STATION WAGON,0,0,,,0,7 AVENUE,1,,MANHATTAN,Failure to Yield Right-of-Way,10027.0,,0,12/03/2016,3573145,,,17:12:00,1
5211,105 AVENUE,0,,0,-73.8054343,,,40.694183100000004,"(40.6941831, -73.8054343)",PASSENGER VEHICLE,0,0,,,0,LIVERPOOL STREET,1,,QUEENS,Failure to Yield Right-of-Way,11435.0,,0,12/03/2016,3572326,,,17:12:00,1
5248,HYLAN BOULEVARD,0,,0,-74.1137614,,,40.5664967,"(40.5664967, -74.1137614)",PASSENGER VEHICLE,1,0,,Unspecified,0,EBBITTS STREET,1,PASSENGER VEHICLE,STATEN ISLAND,Failure to Yield Right-of-Way,10306.0,,0,12/03/2016,3572722,,,18:12:00,0
5258,,0,,0,-73.95712900000002,312       GRAND STREET,,40.71286129999999,"(40.7128613, -73.957129)",SPORT UTILITY / STATION WAGON,0,0,,Unspecified,0,,0,SPORT UTILITY / STATION WAGON,BROOKLYN,Failure to Yield Right-of-Way,11211.0,,0,12/03/2016,3572413,,,19:12:00,0
5261,IRVING AVENUE,0,,0,-73.9035413,,,40.692849700000004,"(40.6928497, -73.9035413)",PASSENGER VEHICLE,0,0,,Unspecified,0,DECATUR STREET,0,PASSENGER VEHICLE,BROOKLYN,Failure to Yield Right-of-Way,11237.0,,0,12/03/2016,3572121,,,19:12:00,0
5283,EAST 94 STREET,0,,0,-73.9100022,,,40.6483539,"(40.6483539, -73.9100022)",SPORT UTILITY / STATION WAGON,0,0,,,0,AVENUE D,1,,BROOKLYN,Failure to Yield Right-of-Way,11236.0,,0,12/03/2016,3573190,,,19:12:00,1
5288,91 AVENUE,0,Unspecified,0,-73.74402109999998,,,40.7234265,"(40.7234265, -73.7440211)",SPORT UTILITY / STATION WAGON,2,0,,Unspecified,0,216 STREET,2,PASSENGER VEHICLE,QUEENS,Failure to Yield Right-of-Way,11428.0,SPORT UTILITY / STATION WAGON,0,12/03/2016,3572587,,,19:12:00,0
5310,AVENUE S,0,,0,-73.96155350000002,,,40.6030058,"(40.6030058, -73.9615535)",PASSENGER VEHICLE,0,0,,Unspecified,0,CONEY ISLAND AVENUE,0,PASSENGER VEHICLE,BROOKLYN,Failure to Yield Right-of-Way,11223.0,,0,12/03/2016,3573118,,,20:12:00,0
5313,158 AVENUE,0,,0,-73.84680340000001,,,40.6599139,"(40.6599139, -73.8468034)",PASSENGER VEHICLE,1,0,,,0,86 STREET,1,,QUEENS,Lost Consciousness,11414.0,,0,10/21/2016,3544633,,,19:10:00,0
5327,70 AVENUE,0,,0,-73.88345490000002,,,40.7056162,"(40.7056162, -73.8834549)",PASSENGER VEHICLE,2,0,,Failure to Yield Right-of-Way,0,69 PLACE,2,PASSENGER VEHICLE,QUEENS,Failure to Yield Right-of-Way,11385.0,,0,12/03/2016,3573054,,,20:12:00,0
5328,GRAND CONCOURSE,0,,0,-73.9282179,,,40.816534999999995,"(40.816535, -73.9282179)",PASSENGER VEHICLE,0,0,,Unspecified,0,EAST 144 STREET,0,PASSENGER VEHICLE,BRONX,Failure to Yield Right-of-Way,10451.0,,0,12/03/2016,3573371,,,21:12:00,0
5334,,0,,0,-73.7930815,201-10    CROSS ISLAND PARKWAY,,40.7865557,"(40.7865557, -73.7930815)",SPORT UTILITY / STATION WAGON,0,0,,Unspecified,0,,0,SPORT UTILITY / STATION WAGON,QUEENS,Failure to Yield Right-of-Way,11360.0,,0,12/03/2016,3572523,,,21:12:00,0
5392,SLOSSON AVENUE,0,,0,-74.1169847,,,40.6149255,"(40.6149255, -74.1169847)",PASSENGER VEHICLE,1,0,,Unspecified,0,SANFORD PLACE,1,PASSENGER VEHICLE,STATEN ISLAND,Lost Consciousness,10314.0,,0,12/03/2016,3573751,,,23:12:00,0
5428,FRANKLIN AVENUE,0,,0,-73.8247175,,,40.7554882,"(40.7554882, -73.8247175)",,0,0,,,0,KISSENA BOULEVARD,1,,QUEENS,Failure to Yield Right-of-Way,11355.0,,0,12/03/2016,3572511,,,04:12:00,1
5440,FULTON STREET,0,Unspecified,0,-73.88643909999998,,,40.6793737,"(40.6793737, -73.8864391)",PASSENGER VEHICLE,0,0,,Unspecified,0,ASHFORD STREET,0,SPORT UTILITY / STATION WAGON,BROOKLYN,Failure to Yield Right-of-Way,11207.0,PASSENGER VEHICLE,0,12/03/2016,3572293,,,06:12:00,0
5442,SHORE ROAD,0,,0,-74.03996509999997,,,40.6191501,"(40.6191501, -74.0399651)",PASSENGER VEHICLE,0,0,,Unspecified,0,OLIVER STREET,0,PASSENGER VEHICLE,BROOKLYN,Failure to Yield Right-of-Way,11209.0,,0,12/03/2016,3573343,,,06:12:00,0
5463,AVENUE L,0,,0,-73.93124990000003,,,40.6233196,"(40.6233196, -73.9312499)",SPORT UTILITY / STATION WAGON,0,0,,Unspecified,0,EAST 46 STREET,0,PASSENGER VEHICLE,BROOKLYN,Failure to Yield Right-of-Way,11234.0,,0,10/17/2016,3542132,,,19:10:00,0
5485,VANDERVORT AVENUE,0,,0,-73.9376185,,,40.7239083,"(40.7239083, -73.9376185)",PICK-UP TRUCK,0,0,,Unspecified,0,CHERRY STREET,0,,BROOKLYN,Failure to Yield Right-of-Way,11222.0,,0,12/03/2016,3572767,,,09:12:00,0
5496,243 STREET,0,,0,-73.7379376,,,40.662185,"(40.662185, -73.7379376)",PASSENGER VEHICLE,0,0,,Unspecified,0,143 AVENUE,0,PASSENGER VEHICLE,QUEENS,Failure to Yield Right-of-Way,11422.0,,0,12/03/2016,3572658,,,09:12:00,0
5509,ATLANTIC AVENUE,0,,0,-73.84281130000002,,,40.689873299999995,"(40.6898733, -73.8428113)",SPORT UTILITY / STATION WAGON,2,0,,Unspecified,0,102 STREET,2,SPORT UTILITY / STATION WAGON,QUEENS,Failure to Yield Right-of-Way,11418.0,,0,12/03/2016,3573143,,,09:12:00,0
5517,,0,,0,-73.9873214,143       2 AVENUE,,40.7291011,"(40.7291011, -73.9873214)",BICYCLE,0,0,,,0,,1,,MANHATTAN,Failure to Yield Right-of-Way,10003.0,,0,10/16/2016,3543833,,,21:10:00,1
5529,GRAND STREET,0,,1,-74.00066020000001,,,40.72084,"(40.72084, -74.0006602)",TAXI,0,0,,Unspecified,0,BROADWAY,1,BICYCLE,MANHATTAN,Failure to Yield Right-of-Way,10013.0,,0,12/02/2016,3573482,,,10:12:00,0
5595,WEST 17 STREET,0,,1,-74.0011295,,,40.7416672,"(40.7416672, -74.0011295)",PASSENGER VEHICLE,0,0,,Unspecified,0,8 AVENUE,1,BICYCLE,MANHATTAN,Failure to Yield Right-of-Way,10011.0,,0,10/15/2016,3543129,,,20:10:00,0
5614,BLAKE AVENUE,0,,0,-73.87795059999998,,,40.6703265,"(40.6703265, -73.8779506)",SPORT UTILITY / STATION WAGON,0,0,,Unspecified,0,ATKINS AVENUE,0,PASSENGER VEHICLE,BROOKLYN,Failure to Yield Right-of-Way,11208.0,,0,12/02/2016,3572289,,,13:12:00,0
5621,CONEY ISLAND AVENUE,0,,0,-73.970545,,,40.6453166,"(40.6453166, -73.970545)",PASSENGER VEHICLE,1,0,,Unspecified,0,TURNER PLACE,1,PASSENGER VEHICLE,BROOKLYN,Failure to Yield Right-of-Way,11218.0,,0,10/14/2016,3540854,,,10:10:00,0
5676,TARGEE STREET,0,,0,-74.09091690000002,,,40.606162899999994,"(40.6061629, -74.0909169)",PASSENGER VEHICLE,0,0,,Unspecified,0,BALTIC AVENUE,0,TAXI,STATEN ISLAND,Failure to Yield Right-of-Way,10304.0,,0,12/02/2016,3572262,,,15:12:00,0
5678,,0,,0,-74.1605691,4343      AMBOY ROAD,,40.5453441,"(40.5453441, -74.1605691)",SPORT UTILITY / STATION WAGON,0,0,,Unspecified,0,,0,SPORT UTILITY / STATION WAGON,STATEN ISLAND,Failure to Yield Right-of-Way,10312.0,,0,12/02/2016,3572269,,,15:12:00,0
5681,KINGS HIGHWAY,0,,0,-73.92850059999998,,,40.6341296,"(40.6341296, -73.9285006)",PASSENGER VEHICLE,1,0,,Unspecified,0,UTICA AVENUE,1,PASSENGER VEHICLE,BROOKLYN,Failure to Yield Right-of-Way,11234.0,,0,12/02/2016,3573002,,,15:12:00,0
5697,35 AVENUE,0,,0,-73.7844304,,,40.7660969,"(40.7660969, -73.7844304)",SPORT UTILITY / STATION WAGON,0,0,,Unspecified,0,203 STREET,0,PASSENGER VEHICLE,QUEENS,Failure to Yield Right-of-Way,11361.0,,0,10/13/2016,3539413,,,13:10:00,0
5703,7 AVENUE,0,,0,-73.93590400000002,,,40.8259814,"(40.8259814, -73.935904)",PASSENGER VEHICLE,0,0,,Unspecified,0,WEST 152 STREET,0,TAXI,MANHATTAN,Failure to Yield Right-of-Way,10039.0,,0,12/02/2016,3573498,,,18:12:00,0
5712,SUTTER AVENUE,0,,0,-73.8720412,,,40.6727547,"(40.6727547, -73.8720412)",TAXI,0,0,,Unspecified,0,DOSCHER STREET,0,PASSENGER VEHICLE,BROOKLYN,Failure to Yield Right-of-Way,11208.0,,0,12/02/2016,3573326,,,19:12:00,0
5715,PAGE AVENUE,0,,0,-74.2351117,,,40.5209185,"(40.5209185, -74.2351117)",PICK-UP TRUCK,0,0,,Unspecified,0,RICHMOND VALLEY ROAD,0,SPORT UTILITY / STATION WAGON,STATEN ISLAND,Failure to Yield Right-of-Way,10309.0,,0,12/02/2016,3573591,,,19:12:00,0
